loggingTime(txt),locationTimestamp_since1970(s),locationLatitude(WGS84),locationLongitude(WGS84),locationAltitude(m),locationSpeed(m/s),locationCourse(°),locationVerticalAccuracy(m),locationHorizontalAccuracy(m),locationFloor(Z),accelerometerTimestamp_sinceReboot(s),accelerometerAccelerationX(G),accelerometerAccelerationY(G),accelerometerAccelerationZ(G),motionTimestamp_sinceReboot(s),motionYaw(rad),motionRoll(rad),motionPitch(rad),motionRotationRateX(rad/s),motionRotationRateY(rad/s),motionRotationRateZ(rad/s),motionUserAccelerationX(G),motionUserAccelerationY(G),motionUserAccelerationZ(G),motionAttitudeReferenceFrame(txt),motionQuaternionX(R),motionQuaternionY(R),motionQuaternionZ(R),motionQuaternionW(R),motionGravityX(G),motionGravityY(G),motionGravityZ(G),motionMagneticFieldX(µT),motionMagneticFieldY(µT),motionMagneticFieldZ(µT),motionHeading(°),motionMagneticFieldCalibrationAccuracy(Z),activityTimestamp_sinceReboot(s),activity(txt),activityActivityConfidence(Z),activityActivityStartDate(txt),altimeterTimestamp_sinceReboot(s),altimeterReset(bool),altimeterRelativeAltitude(m),altimeterPressure(kPa),batteryState(N),batteryLevel(R)
2022-02-17 14:55:41.670 -0500,1645127740.833433,34.01161219294617,-80.98460124639941,63.42598,0,169.244047742686,14.65109213843592,11.43396288454015,-9999,2887.938216416667,-0.015655517578125,-0.016448974609375,-1.003189086914062,2887.838820416667,-0.2805963105025792,-0.01952365879959549,0.01455144076135432,-0.02557581849396229,-0.004702330566942692,-0.05593705177307129,-0.01114974357187748,-0.0002358080819249153,0.003030002117156982,XArbitraryZVertical,0.005838804133469053,-0.01068286900379983,-0.1398982860922725,0.9900911935949878,-0.01952035166323185,-0.01455092709511518,-0.999703586101532,0,0,0,-1,-1,2886.983521,unknown,2,2022-02-17 14:55:40.717 -0500,666820540.716956,0,0.5999985,100.9982,1,1
2022-02-17 14:55:41.769 -0500,1645127740.833433,34.01161219294617,-80.98460124639941,63.42598,0,169.244047742686,14.65109213843592,11.43396288454015,-9999,2888.037613416667,-0.0175933837890625,-0.00775146484375,-1.006484985351562,2887.938216416667,-0.2816918589356518,-0.01990017331325251,0.0156590609057735,0.04557798802852631,0.02420515008270741,0.08776526153087616,0.004118902608752251,-0.006483051925897598,-0.002884030342102051,XArbitraryZVertical,0.006354801687843964,-0.01095014097245567,-0.1404465874666587,0.9900073769567704,-0.01989641971886158,-0.01565842144191265,-0.9996794462203979,0,0,0,-1,-1,2886.983521,unknown,2,2022-02-17 14:55:40.717 -0500,666820540.716956,0,0.5999985,100.9982,1,1
2022-02-17 14:55:41.869 -0500,1645127740.833433,34.01161219294617,-80.98460124639941,63.42598,0,169.244047742686,14.65109213843592,11.43396288454015,-9999,2888.137010416667,-0.0051116943359375,-0.022552490234375,-1.00372314453125,2888.137010416667,-0.2803227336439634,-0.01359088127848291,0.01927813475576406,-0.02906615473330021,0.003676073625683784,-0.04943827539682388,0.006172237917780876,0.0004466250538825989,-0.001788735389709473,XArbitraryZVertical,0.008594881628249099,-0.008074989658597313,-0.139758035385044,0.9901155143688746,-0.01358793769031763,-0.01927694119513035,-0.9997218251228333,0,0,0,-1,-1,2886.983521,unknown,2,2022-02-17 14:55:40.717 -0500,666820540.716956,0,0.5999985,100.9982,1,1
2022-02-17 14:55:41.968 -0500,1645127740.833433,34.01161219294617,-80.98460124639941,63.42598,0,169.244047742686,14.65109213843592,11.43396288454015,-9999,2888.236406416667,-0.0138092041015625,-0.0276947021484375,-1.004928588867188,2888.137010416667,-0.2803227336439634,-0.01359088127848291,0.01927813475576406,-0.02906615473330021,0.003676073625683784,-0.04943827539682388,0.006172237917780876,0.0004466250538825989,-0.001788735389709473,XArbitraryZVertical,0.008594881628249099,-0.008074989658597313,-0.139758035385044,0.9901155143688746,-0.01358793769031763,-0.01927694119513035,-0.9997218251228333,0,0,0,-1,-1,2886.983521,unknown,2,2022-02-17 14:55:40.717 -0500,666820540.716956,0,0.5999985,100.9982,1,1
2022-02-17 14:55:42.067 -0500,1645127740.833433,34.01161219294617,-80.98460124639941,63.42598,0,169.244047742686,14.65109213843592,11.43396288454015,-9999,2888.335803416667,-0.0097808837890625,-0.0105743408203125,-1.009353637695312,2888.236406416667,-0.2803877680709752,-0.01345896713452446,0.02185003019742603,0.0509735532104969,-0.01828158833086491,0.03994366899132729,0.001507787965238094,-0.007663173601031303,-0.002419650554656982,XArbitraryZVertical,0.009877086830807477,-0.008189555091355796,-0.1397963904951802,0.9900971546612884,-0.01345534808933735,-0.02184829115867615,-0.9996707439422607,0,0,0,-1,-1,2886.983521,unknown,2,2022-02-17 14:55:40.717 -0500,666820540.716956,0,0.5999985,100.9982,1,1
2022-02-17 14:55:42.167 -0500,1645127740.833433,34.01161219294617,-80.98460124639941,63.42598,0,169.244047742686,14.65109213843592,11.43396288454015,-9999,2888.435199416667,-0.011322021484375,-0.0229949951171875,-1.0072021484375,2888.335803416667,-0.2777475603859842,-0.01501420439952992,0.02610704106191495,0.07475131750106812,0.02175957150757313,0.05145731568336487,0.00191655196249485,0.01121052540838718,-0.0103105902671814,XArbitraryZVertical,0.01188802267181568,-0.009240992124891689,-0.1385091721283354,0.9902467303794883,-0.01500852406024933,-0.02610407583415508,-0.9995465874671936,0,0,0,-1,-1,2886.983521,unknown,2,2022-02-17 14:55:40.717 -0500,666820540.716956,0,0.5999985,100.9982,1,1
2022-02-17 14:55:42.266 -0500,1645127740.833433,34.01161219294617,-80.98460124639941,63.42598,0,169.244047742686,14.65109213843592,11.43396288454015,-9999,2888.534596666667,-0.0192108154296875,-0.0315399169921875,-1.002151489257812,2888.435199416667,-0.27553008039847,-0.01255490677901788,0.03204490013535779,0.05501623079180717,-0.01514808088541031,0.04592446237802505,0.00667356513440609,0.00509142130613327,-0.01327216625213623,XArbitraryZVertical,0.01500768593126355,-0.008417356726047077,-0.1374089467507302,0.990365068749109,-0.01254813186824322,-0.03203941509127617,-0.9994078278541565,0,0,0,-1,-1,2886.983521,unknown,2,2022-02-17 14:55:40.717 -0500,666820540.716956,0,0.5999985,100.9982,1,1
2022-02-17 14:55:42.366 -0500,1645127740.833433,34.01161219294617,-80.98460124639941,63.42598,0,169.244047742686,14.65109213843592,11.43396288454015,-9999,2888.633993666667,-0.0103302001953125,-0.04217529296875,-1.001068115234375,2888.534596666667,-0.2714707647242363,-0.01329647309847778,0.03830114190979916,0.04804407805204391,-0.0195614043623209,-0.02129265666007996,-0.003315168432891369,0.007727455347776413,-0.00343090295791626,XArbitraryZVertical,0.01807338466351713,-0.009177049144437323,-0.1354172920828383,0.9905813573104579,-0.01328632980585098,-0.03829177841544151,-0.9991782903671265,0,0,0,-1,-1,2886.983521,unknown,2,2022-02-17 14:55:40.717 -0500,666820540.716956,0,0.5999985,100.9982,1,1
2022-02-17 14:55:42.465 -0500,1645127741.783421,34.01161219294617,-80.98460124639941,63.42598,0,169.244047742686,6.12077801674191,8.324394630008294,-9999,2888.733389666667,-0.0045318603515625,-0.049957275390625,-0.9984588623046875,2888.633993666667,-0.2716524208767162,-0.01349482763958281,0.04230024166993081,0.07198216766119003,0.0003880690783262253,0.01992588676512241,0.002099353820085526,0.0006759390234947205,-0.0009091496467590332,XArbitraryZVertical,0.0200398343471654,-0.009547358897575355,-0.1355169647134052,0.9905263986304362,-0.01348234713077545,-0.04228762909770012,-0.9990144968032837,0,0,0,-1,-1,2886.983521,unknown,2,2022-02-17 14:55:40.717 -0500,666820540.716956,0,0.5999985,100.9982,1,1
2022-02-17 14:55:42.565 -0500,1645127741.783421,34.01161219294617,-80.98460124639941,63.42598,0,169.244047742686,6.12077801674191,8.324394630008294,-9999,2888.832786666667,-0.0157318115234375,-0.05010986328125,-0.99493408203125,2888.733389666667,-0.2734315572840206,-0.0146012388428984,0.04332393846076171,-0.02939053066074848,0.01276647485792637,-0.0211843978613615,0.004775683395564556,-0.003916535526514053,0.002281665802001953,XArbitraryZVertical,0.02046282694233996,-0.01018274041626924,-0.1364113147617734,0.9903886916784371,-0.01458701957017183,-0.04331038519740105,-0.9989551901817322,0,0,0,-1,-1,2886.983521,unknown,2,2022-02-17 14:55:40.717 -0500,666820540.716956,0,0.5999985,100.9982,1,1
2022-02-17 14:55:42.664 -0500,1645127741.783421,34.01161219294617,-80.98460124639941,63.42598,0,169.244047742686,6.12077801674191,8.324394630008294,-9999,2888.932183666667,-0.0152740478515625,-0.0495758056640625,-0.9963531494140625,2888.832786666667,-0.2744362974769961,-0.0161930971203007,0.04340126678854626,-0.03224011138081551,-0.03491905331611633,-0.01834001019597054,0.003542931750416756,-0.00222184881567955,0.005748093128204346,XArbitraryZVertical,0.02038702544116613,-0.01098652206931751,-0.1369252843003327,0.9903106576850397,-0.01617714203894138,-0.04338764399290085,-0.9989273548126221,0,0,0,-1,-1,2886.983521,unknown,2,2022-02-17 14:55:40.717 -0500,666820540.716956,0,0.5999985,100.9982,1,1
2022-02-17 14:55:42.764 -0500,1645127741.783421,34.01161219294617,-80.98460124639941,63.42598,0,169.244047742686,6.12077801674191,8.324394630008294,-9999,2889.031580666667,-0.0128326416015625,-0.050048828125,-1.002532958984375,2888.932183666667,-0.2765224653174174,-0.01775410534598727,0.04302707505316931,-0.00577388284727931,-0.02487104758620262,0.002977130468934774,0.005087273195385933,-0.004197865724563599,0.001694142818450928,XArbitraryZVertical,0.02008260553002649,-0.01175486339869015,-0.1379729523137457,0.9901626956458274,-0.01773674227297306,-0.0430137999355793,-0.9989170432090759,0,0,0,-1,-1,2886.983521,unknown,2,2022-02-17 14:55:40.717 -0500,666820540.716956,0,0.5999985,100.9982,1,1
2022-02-17 14:55:42.863 -0500,1645127741.783421,34.01161219294617,-80.98460124639941,63.42598,0,169.244047742686,6.12077801674191,8.324394630008294,-9999,2889.130977666667,-0.0168304443359375,-0.0312957763671875,-1.015426635742188,2889.031580666667,-0.2775649754539108,-0.01849118643556486,0.0423594445235972,-0.0149490050971508,-0.003610366955399513,-0.04228382557630539,0.004755964502692223,0.002154160290956497,-0.004974007606506348,XArbitraryZVertical,0.01969490907718679,-0.01208411523536365,-0.1384943724423277,0.9900937811924752,-0.0184735469520092,-0.0423467792570591,-0.9989321827888489,0,0,0,-1,-1,2886.983521,unknown,2,2022-02-17 14:55:40.717 -0500,666820540.716956,0,0.5999985,100.9982,1,1
2022-02-17 14:55:42.969 -0500,1645127741.783421,34.01161219294617,-80.98460124639941,63.42598,0,169.244047742686,6.12077801674191,8.324394630008294,-9999,2889.230373666667,-0.0198974609375,-0.0361480712890625,-1.003570556640625,2889.230373666667,-0.2753499151913825,-0.02441248606511445,0.04404258070592953,0.01145889982581139,-0.02769196778535843,0.02300529927015305,0.01172166131436825,-0.004739716649055481,-0.008896768093109131,XArbitraryZVertical,0.02013478718387869,-0.01510925241368558,-0.1374631558807408,0.9901870849628506,-0.02438639104366302,-0.04402834177017212,-0.9987326264381409,0,0,0,-1,-1,2886.983521,unknown,2,2022-02-17 14:55:40.717 -0500,666820540.716956,0,0.5999985,100.9982,1,1
2022-02-17 14:55:43.062 -0500,1645127741.783421,34.01161219294617,-80.98460124639941,63.42598,0,169.244047742686,6.12077801674191,8.324394630008294,-9999,2889.329770666667,-0.023101806640625,-0.03961181640625,-0.9988555908203125,2889.230373666667,-0.2753499151913825,-0.02441248606511445,0.04404258070592953,0.01145889982581139,-0.02769196778535843,0.02300529927015305,0.01172166131436825,-0.004739716649055481,-0.008896768093109131,XArbitraryZVertical,0.02013478718387869,-0.01510925241368558,-0.1374631558807408,0.9901870849628506,-0.02438639104366302,-0.04402834177017212,-0.9987326264381409,0,0,0,-1,-1,2886.983521,unknown,2,2022-02-17 14:55:40.717 -0500,666820540.716956,0,0.5999985,100.9982,1,1
2022-02-17 14:55:43.161 -0500,1645127741.783421,34.01161219294617,-80.98460124639941,63.42598,0,169.244047742686,6.12077801674191,8.324394630008294,-9999,2889.429167666667,-0.0248565673828125,-0.0464630126953125,-1.000656127929688,2889.329770666667,-0.2710115452203459,-0.02554145484805889,0.04790960096284963,0.06719060242176056,-0.003677112050354481,0.05627057701349258,-0.001574914902448654,0.007866498082876205,-0.001351118087768555,XArbitraryZVertical,0.02200632968859053,-0.01588520057221543,-0.1353447674755971,0.9904268015435745,-0.02550937421619892,-0.0478912740945816,-0.9985267519950867,0,0,0,-1,-1,2886.983521,unknown,2,2022-02-17 14:55:40.717 -0500,666820540.716956,0,0.5999985,100.9982,1,1
2022-02-17 14:55:43.262 -0500,1645127741.783421,34.01161219294617,-80.98460124639941,63.42598,0,169.244047742686,6.12077801674191,8.324394630008294,-9999,2889.528565875,-0.0256805419921875,-0.057159423828125,-0.993560791015625,2889.429167666667,-0.2698034838274661,-0.02498857396920508,0.0488265440389718,0.05483433976769447,0.03516199439764023,0.02225042879581451,0.00283101387321949,0.003289207816123962,-0.006538927555084229,XArbitraryZVertical,0.02250732481200535,-0.01565958795310321,-0.134744579959498,0.9905010225036227,-0.02495619654655457,-0.04880714416503906,-0.998496413230896,0,0,0,-1,-1,2886.983521,unknown,2,2022-02-17 14:55:40.717 -0500,666820540.716956,0,0.5999985,100.9982,1,1
2022-02-17 14:55:43.360 -0500,1645127742.73341,34.01161219294617,-80.98460124639941,63.42598,0,169.244047742686,6.076036809555243,8.26509885489836,-9999,2889.627962875,-0.0152130126953125,-0.055816650390625,-1.004898071289062,2889.528565875,-0.2695127912697148,-0.02261685566139882,0.05162007980723123,0.001590290572494268,0.03905017673969269,-0.004268664866685867,-0.001050999388098717,-0.007882572710514069,-0.001129567623138428,XArbitraryZVertical,0.02405283584365386,-0.01466887867995261,-0.1345847643829981,0.9905015618741289,-0.02258480340242386,-0.05159715935587883,-0.998412549495697,0,0,0,-1,-1,2889.531186875,unknown,2,2022-02-17 14:55:43.265 -0500,666820543.2646248,0,0.7699986,100.9958,1,1
2022-02-17 14:55:43.466 -0500,1645127742.73341,34.01161219294617,-80.98460124639941,63.42598,0,169.244047742686,6.076036809555243,8.26509885489836,-9999,2889.727359875,-0.0243072509765625,-0.027496337890625,-1.005035400390625,2889.627962875,-0.2723895210743023,-0.02273756330779606,0.04890035953211619,-0.04836554825305939,-0.01588181406259537,0.001809334382414818,0.00941808708012104,-0.004907328635454178,-0.0032387375831604,XArbitraryZVertical,0.02267669508379376,-0.0145790500988509,-0.1360001031151452,0.9903420289254612,-0.02270842716097832,-0.04888087138533592,-0.9985464215278625,0,0,0,-1,-1,2889.531186875,unknown,2,2022-02-17 14:55:43.265 -0500,666820543.2646248,0,0.7699986,100.9958,1,1
2022-02-17 14:55:43.559 -0500,1645127742.73341,34.01161219294617,-80.98460124639941,63.42598,0,169.244047742686,6.076036809555243,8.26509885489836,-9999,2889.826756875,-0.02215576171875,-0.0449371337890625,-0.99786376953125,2889.727359875,-0.2738792032580676,-0.02264745839000225,0.04617074242578437,-0.004056144040077925,0.006397426128387451,-0.034976776689291,-3.784894943237305e-05,0.01424723863601685,-0.01009559631347656,XArbitraryZVertical,0.02132037746946368,-0.01436544020393855,-0.1367258180657512,0.9902753158007216,-0.02262138947844505,-0.04615433886647224,-0.9986781477928162,0,0,0,-1,-1,2889.531186875,unknown,2,2022-02-17 14:55:43.265 -0500,666820543.2646248,0,0.7699986,100.9958,1,1
2022-02-17 14:55:43.658 -0500,1645127742.73341,34.01161219294617,-80.98460124639941,63.42598,0,169.244047742686,6.076036809555243,8.26509885489836,-9999,2889.926153875,-0.0250091552734375,-0.049896240234375,-0.99493408203125,2889.826756875,-0.278139956826593,-0.02418252151213489,0.04590739240203032,0.01021493785083294,0.005149370059370995,0.01233174931257963,-0.002654934301972389,0.0001291893422603607,0.001568853855133057,XArbitraryZVertical,0.02105279284832386,-0.01515245391618055,-0.1388503002500963,0.9899737285424348,-0.02415468916296959,-0.04589127004146576,-0.9986543655395508,0,0,0,-1,-1,2889.531186875,unknown,2,2022-02-17 14:55:43.265 -0500,666820543.2646248,0,0.7699986,100.9958,1,1
2022-02-17 14:55:43.758 -0500,1645127742.73341,34.01161219294617,-80.98460124639941,63.42598,0,169.244047742686,6.076036809555243,8.26509885489836,-9999,2890.025550875,-0.0357513427734375,-0.041168212890625,-1.001358032226562,2889.926153875,-0.2805103691035464,-0.02680274791988369,0.04560177776474311,0.0263931080698967,-0.04256895184516907,-0.06650634109973907,0.002510271966457367,-0.00165620818734169,0.001302480697631836,XArbitraryZVertical,0.02070009434117435,-0.01645283450533419,-0.1400494231699556,0.9897914904221077,-0.02677167952060699,-0.04558597505092621,-0.9986016154289246,0,0,0,-1,-1,2889.531186875,unknown,2,2022-02-17 14:55:43.265 -0500,666820543.2646248,0,0.7699986,100.9958,1,1
2022-02-17 14:55:43.857 -0500,1645127742.73341,34.01161219294617,-80.98460124639941,63.42598,0,169.244047742686,6.076036809555243,8.26509885489836,-9999,2890.124947875,-0.0542755126953125,-0.041168212890625,-0.9989776611328125,2890.025550875,-0.2833259507947375,-0.03624605844297083,0.04030281116564079,-0.04164106771349907,-0.09712496399879456,-0.04671146348118782,-0.00012240931391716,0.00348673015832901,-0.003894448280334473,XArbitraryZVertical,0.01738678958366109,-0.02078136686151554,-0.1414992738457866,0.9895675245617443,-0.03620869666337967,-0.04029190167784691,-0.9985316395759583,0,0,0,-1,-1,2889.531186875,unknown,2,2022-02-17 14:55:43.265 -0500,666820543.2646248,0,0.7699986,100.9958,1,1
2022-02-17 14:55:43.968 -0500,1645127742.73341,34.01161219294617,-80.98460124639941,63.42598,0,169.244047742686,6.076036809555243,8.26509885489836,-9999,2890.224344875,-0.0966339111328125,-0.01873779296875,-0.9611663818359375,2890.124947875,-0.2879522101100302,-0.05777803845371337,0.03607154610579733,-0.006047655362635851,-0.3221973180770874,0.01286305114626884,0.009460117667913437,-0.01317735761404037,-0.004896819591522217,XArbitraryZVertical,0.01369702450286795,-0.03116802305544363,-0.1439115412498884,0.9890048631986402,-0.05770833417773247,-0.03606372326612473,-0.9976819157600403,0,0,0,-1,-1,2889.531186875,unknown,2,2022-02-17 14:55:43.265 -0500,666820543.2646248,0,0.7699986,100.9958,1,1
2022-02-17 14:55:44.056 -0500,1645127742.73341,34.01161219294617,-80.98460124639941,63.42598,0,169.244047742686,6.076036809555243,8.26509885489836,-9999,2890.323741875,-0.23126220703125,-0.0375213623046875,-0.9817962646484375,2890.224344875,-0.2822249500319501,-0.1132157917297265,0.04213405804332153,-0.05970502644777298,-0.804462730884552,0.04352668672800064,0.023548923432827,0.02681605517864227,0.06604987382888794,XArbitraryZVertical,0.01286709741333479,-0.05896085627357051,-0.1415681474786969,0.9880874187560088,-0.1128738150000572,-0.04212159290909767,-0.9927161335945129,0,0,0,-1,-1,2889.531186875,unknown,2,2022-02-17 14:55:43.265 -0500,666820543.2646248,0,0.7699986,100.9958,1,1
2022-02-17 14:55:44.155 -0500,1645127742.73341,34.01161219294617,-80.98460124639941,63.42598,0,169.244047742686,6.076036809555243,8.26509885489836,-9999,2890.423138875,-0.4232635498046875,0.013336181640625,-0.92352294921875,2890.323741875,-0.2854538048079319,-0.2476118731290033,0.0309927967551505,-0.05612573772668839,-1.545548915863037,0.08158951252698898,0.01868386566638947,-0.0007819347083568573,-0.01648449897766113,XArbitraryZVertical,-0.002342625081974366,-0.1244068303051443,-0.1430312161984025,0.9818654363711619,-0.2449716776609421,-0.03098783455789089,-0.9690349102020264,0,0,0,-1,-1,2889.531186875,unknown,2,2022-02-17 14:55:43.265 -0500,666820543.2646248,0,0.7699986,100.9958,1,1
2022-02-17 14:55:44.255 -0500,1645127742.73341,34.01161219294617,-80.98460124639941,63.42598,0,169.244047742686,6.076036809555243,8.26509885489836,-9999,2890.522535666667,-0.6165008544921875,0.04998779296875,-0.778594970703125,2890.423138875,-0.283085469122494,-0.4455535044924182,0.0005488260328174394,-0.3914496600627899,-2.539807081222534,0.1472638696432114,0.0191379189491272,0.0132889486849308,-0.04384064674377441,XArbitraryZVertical,-0.03090296978857825,-0.2187668358836638,-0.1376444123117863,0.9655259594795054,-0.4309573471546173,-0.000548826006706804,-0.9023721814155579,0,0,0,-1,-1,2889.531186875,unknown,2,2022-02-17 14:55:43.265 -0500,666820543.2646248,0,0.7699986,100.9958,1,1
2022-02-17 14:55:44.354 -0500,1645127742.73341,34.01161219294617,-80.98460124639941,63.42598,0,169.244047742686,6.076036809555243,8.26509885489836,-9999,2890.621932666667,-0.7413177490234375,0.025909423828125,-0.671356201171875,2890.522535666667,-0.2967964586430175,-0.6887483142928325,-0.03486511306386349,-0.2405967861413956,-2.013200283050537,0.002740907948464155,0.03256964683532715,0.01326720416545868,-0.01213371753692627,XArbitraryZVertical,-0.06613696156737822,-0.3314202810760482,-0.1333316455672191,0.931670203317216,-0.6351851224899292,0.03485805168747902,-0.771573007106781,0,0,0,-1,-1,2889.531186875,unknown,2,2022-02-17 14:55:43.265 -0500,666820543.2646248,0,0.7699986,100.9958,1,1
2022-02-17 14:55:44.463 -0500,1645127742.73341,34.01161219294617,-80.98460124639941,63.42598,0,169.244047742686,6.076036809555243,8.26509885489836,-9999,2890.721329666667,-0.8296661376953125,0.0483856201171875,-0.50604248046875,2890.621932666667,-0.327678758888526,-0.8741810540273449,-0.04570557502505287,-0.4210504293441772,-2.004692316055298,-0.2030685842037201,0.02077966928482056,-0.01328094303607941,-0.03816777467727661,XArbitraryZVertical,-0.08945145373859822,-0.4141507399944286,-0.1381912453524076,0.8951988474521921,-0.7662173509597778,0.0456896647810936,-0.6409552097320557,0,0,0,-1,-1,2889.531186875,unknown,2,2022-02-17 14:55:43.265 -0500,666820543.2646248,0,0.7699986,100.9958,1,1
2022-02-17 14:55:44.553 -0500,1645127742.73341,34.01161219294617,-80.98460124639941,63.42598,0,169.244047742686,6.076036809555243,8.26509885489836,-9999,2890.820726666667,-0.906829833984375,0.0632781982421875,-0.41473388671875,2890.721329666667,-0.3457914327545619,-1.028598069933557,-0.05426207607403732,-0.07367037236690521,-1.239961504936218,-0.008802830241620541,0.03102058172225952,-0.01375484466552734,-0.002378463745117188,XArbitraryZVertical,-0.1078636835560701,-0.4803488890838812,-0.1365797442492694,0.8596373809916722,-0.8553156852722168,0.05423545092344284,-0.5152607560157776,0,0,0,-1,-1,2889.531186875,unknown,2,2022-02-17 14:55:43.265 -0500,666820543.2646248,0,0.7699986,100.9958,1,1
2022-02-17 14:55:44.652 -0500,1645127742.73341,34.01161219294617,-80.98460124639941,63.42598,0,169.244047742686,6.076036809555243,8.26509885489836,-9999,2890.920123666667,-0.933929443359375,0.0669403076171875,-0.330291748046875,2890.820726666667,-0.3517996947570728,-1.140769567296844,-0.0557977077944822,-0.02117414399981499,-1.036158680915833,0.04704951494932175,0.005470871925354004,0.009293779730796814,-0.01237308979034424,XArbitraryZVertical,-0.117569283418899,-0.5273085224502799,-0.1324043152207099,0.831018957441498,-0.9075401425361633,0.05576875805854797,-0.4162463843822479,0,0,0,-1,-1,2889.531186875,unknown,2,2022-02-17 14:55:43.265 -0500,666820543.2646248,0,0.7699986,100.9958,1,1
2022-02-17 14:55:44.751 -0500,1645127742.73341,34.01161219294617,-80.98460124639941,63.42598,0,169.244047742686,6.076036809555243,8.26509885489836,-9999,2891.019520666667,-0.956695556640625,0.0576934814453125,-0.289276123046875,2890.920123666667,-0.3553484392073967,-1.225103070715253,-0.06169082142201563,-0.04124532267451286,-0.4669590294361115,0.07520712167024612,0.01372754573822021,-0.004081249237060547,0.01116275787353516,XArbitraryZVertical,-0.1264060148507716,-0.5611767005557057,-0.127084894759954,0.8080543592869799,-0.9390511512756348,0.06165169924497604,-0.3382044732570648,0,0,0,-1,-1,2889.531186875,unknown,2,2022-02-17 14:55:43.265 -0500,666820543.2646248,0,0.7699986,100.9958,1,1
2022-02-17 14:55:44.851 -0500,1645127742.73341,34.01161219294617,-80.98460124639941,63.42598,0,169.244047742686,6.076036809555243,8.26509885489836,-9999,2891.118918666667,-0.972412109375,0.039886474609375,-0.2350311279296875,2891.019520666667,-0.3622873684721682,-1.292833921026858,-0.05895537945309282,-0.06257191300392151,-0.8153892755508423,-0.05092618241906166,0.009994685649871826,-7.987022399902344e-06,-0.01419639587402344,XArbitraryZVertical,-0.1316075451433621,-0.5879790651485181,-0.1262831963536272,0.7880436657480865,-0.9599459767341614,0.05892123281955719,-0.2739201486110687,0,0,0,-1,-1,2889.531186875,unknown,2,2022-02-17 14:55:43.265 -0500,666820543.2646248,0,0.7699986,100.9958,1,1
2022-02-17 14:55:44.950 -0500,1645127742.73341,34.01161219294617,-80.98460124639941,63.42598,0,169.244047742686,6.076036809555243,8.26509885489836,-9999,2891.218315666667,-0.9728546142578125,0.04644775390625,-0.1902008056640625,2891.118918666667,-0.3712071434850001,-1.342917800141522,-0.05001847107032576,-0.06780848652124405,-0.3627839386463165,-0.2225671857595444,0.007582247257232666,-0.01589517295360565,-0.003359794616699219,XArbitraryZVertical,-0.134013396192265,-0.6076396616957305,-0.1291436052104761,0.7720988210464987,-0.9729296565055847,0.04999761655926704,-0.2256288975477219,0,0,0,-1,-1,2889.531186875,unknown,2,2022-02-17 14:55:43.265 -0500,666820543.2646248,0,0.7699986,100.9958,1,1
2022-02-17 14:55:45.050 -0500,1645127742.73341,34.01161219294617,-80.98460124639941,63.42598,0,169.244047742686,6.076036809555243,8.26509885489836,-9999,2891.317712666667,-0.995697021484375,0.0571441650390625,-0.14117431640625,2891.218315666667,-0.3869642593852247,-1.387870974657909,-0.0421645015271265,-0.1159355416893959,-0.4389334321022034,-0.0376545824110508,0.00807654857635498,0.006034296005964279,-0.01022563874721527,XArbitraryZVertical,-0.1388499932019391,-0.6243781445601361,-0.1345464192865757,0.756815651893362,-0.9824418425559998,0.04215200990438461,-0.1817452311515808,0,0,0,-1,-1,2889.531186875,unknown,2,2022-02-17 14:55:43.265 -0500,666820543.2646248,0,0.7699986,100.9958,1,1
2022-02-17 14:55:45.150 -0500,1645127742.73341,34.01161219294617,-80.98460124639941,63.42598,0,169.244047742686,6.076036809555243,8.26509885489836,-9999,2891.417109666667,-0.998321533203125,0.0525054931640625,-0.081512451171875,2891.317712666667,-0.3886795414147706,-1.436746137708652,-0.04951735477946035,-0.007288421969860792,-0.5838527083396912,0.03367045894265175,-0.00440293550491333,0.0102400928735733,-0.01019150018692017,XArbitraryZVertical,-0.1453516960071428,-0.641973710174542,-0.129363420501747,0.741625166377915,-0.9898141026496887,0.04949712008237839,-0.133485272526741,0,0,0,-1,-1,2889.531186875,unknown,2,2022-02-17 14:55:43.265 -0500,666820543.2646248,0,0.7699986,100.9958,1,1
2022-02-17 14:55:45.260 -0500,1645127742.73341,34.01161219294617,-80.98460124639941,63.42598,0,169.244047742686,6.076036809555243,8.26509885489836,-9999,2891.516506666667,-0.9822845458984375,0.043304443359375,-0.0820770263671875,2891.417109666667,-0.3864033563637632,-1.489031388430703,-0.05105601376305677,0.08300206065177917,-0.1189037710428238,-0.02507860586047173,-3.147125244140625e-05,0.002035290002822876,0.00940859317779541,XArbitraryZVertical,-0.148483567622814,-0.6611874978111502,-0.1241808629577163,0.7248192738904395,-0.9953604936599731,0.05103383585810661,-0.08156744390726089,0,0,0,-1,-1,2889.531186875,unknown,2,2022-02-17 14:55:43.265 -0500,666820543.2646248,0,0.7699986,100.9958,1,1
2022-02-17 14:55:45.348 -0500,1645127742.73341,34.01161219294617,-80.98460124639941,63.42598,0,169.244047742686,6.076036809555243,8.26509885489836,-9999,2891.615904375,-0.9973907470703125,0.0511016845703125,-0.065399169921875,2891.516506666667,-0.3816206947643084,-1.493332196487537,-0.04688608260690336,0.03506356105208397,-0.218929335474968,-0.04662104696035385,0.01252233982086182,-0.001993745565414429,-0.01066535711288452,XArbitraryZVertical,-0.1456695187873277,-0.6634226158908104,-0.1235281326713711,0.7234582147288093,-0.9959056377410889,0.04686890542507172,-0.07730165123939514,0,0,0,-1,-1,2889.531186875,unknown,2,2022-02-17 14:55:43.265 -0500,666820543.2646248,0,0.7699986,100.9958,1,1
2022-02-17 14:55:45.447 -0500,1645127744.634386,34.01161219294617,-80.98460124639941,63.42598,0,169.244047742686,9.541569137264791,12.96023784345464,-9999,2891.715301375,-0.98870849609375,0.0395355224609375,-0.0631256103515625,2891.615904375,-0.3797005780078855,-1.508450704015082,-0.04128242874857839,-0.03582658991217613,-0.08608266711235046,-0.09360267221927643,0.002745747566223145,0.009051818400621414,0.0004846006631851196,XArbitraryZVertical,-0.1439601047297623,-0.6694396235840568,-0.1236257180331688,0.7182219427150124,-0.9972068071365356,0.04127070307731628,-0.06225215643644333,0,0,0,-1,-1,2889.531186875,unknown,2,2022-02-17 14:55:43.265 -0500,666820543.2646248,0,0.7699986,100.9958,1,1
2022-02-17 14:55:45.547 -0500,1645127744.634386,34.01161219294617,-80.98460124639941,63.42598,0,169.244047742686,9.541569137264791,12.96023784345464,-9999,2891.814698375,-0.9989471435546875,0.0389862060546875,-0.056396484375,2891.715301375,-0.3841682229170407,-1.514466869360292,-0.03827627924938076,-0.02349935099482536,-0.09294150769710541,-0.05391385033726692,0.005205214023590088,0.0002453029155731201,-0.00602799654006958,XArbitraryZVertical,-0.1447630561077406,-0.6715016272324921,-0.1258091238673891,0.7157523543656237,-0.9976827502250671,0.03826693445444107,-0.05625844374299049,0,0,0,-1,-1,2889.531186875,unknown,2,2022-02-17 14:55:43.265 -0500,666820543.2646248,0,0.7699986,100.9958,1,1
2022-02-17 14:55:45.646 -0500,1645127744.634386,34.01161219294617,-80.98460124639941,63.42598,0,169.244047742686,9.541569137264791,12.96023784345464,-9999,2891.914095375,-0.99517822265625,0.044586181640625,-0.060821533203125,2891.814698375,-0.3853306988691971,-1.519016398664285,-0.03616189338861656,0.02357388474047184,-0.02577316015958786,-0.01938663050532341,-0.002603530883789062,0.00513530895113945,-0.007206551730632782,XArbitraryZVertical,-0.1446903622411524,-0.6732036986648618,-0.126611692532025,0.7140245166906888,-0.9980068802833557,0.03615401312708855,-0.05172295868396759,0,0,0,-1,-1,2889.531186875,unknown,2,2022-02-17 14:55:43.265 -0500,666820543.2646248,0,0.7699986,100.9958,1,1
2022-02-17 14:55:45.745 -0500,1645127744.634386,34.01161219294617,-80.98460124639941,63.42598,0,169.244047742686,9.541569137264791,12.96023784345464,-9999,2892.013492375,-0.9911346435546875,0.0293121337890625,-0.050689697265625,2891.914095375,-0.3817799387399691,-1.519213762891106,-0.03363137259036064,0.0642094612121582,-0.07105162739753723,-0.04907688498497009,0.003201603889465332,0.007145505398511887,-0.01104575023055077,XArbitraryZVertical,-0.1426095456668535,-0.6737189678678477,-0.1261880526975997,0.7140321544964099,-0.9981052279472351,0.0336250327527523,-0.05153053998947144,0,0,0,-1,-1,2889.531186875,unknown,2,2022-02-17 14:55:43.265 -0500,666820543.2646248,0,0.7699986,100.9958,1,1
2022-02-17 14:55:45.845 -0500,1645127745.584376,34.01161219294617,-80.98460124639941,63.42598,0,169.244047742686,6.011050649976779,8.139732248218543,-9999,2892.112889375,-0.9925994873046875,0.0286407470703125,-0.04986572265625,2892.013492375,-0.3776923171075719,-1.519966390157643,-0.027206037601029,0.03127654641866684,0.00265159085392952,0.003214950673282146,0.003038525581359863,0.0010861586779356,-0.005210515111684799,XArbitraryZVertical,-0.1389985104675883,-0.6747479435136018,-0.1268555717679874,0.7136542443151571,-0.9983389377593994,0.02720268070697784,-0.0507892519235611,0,0,0,-1,-1,2892.066478375,unknown,2,2022-02-17 14:55:45.800 -0500,666820545.7999223,0,0.8399982,100.994,1,1
2022-02-17 14:55:45.944 -0500,1645127745.584376,34.01161219294617,-80.98460124639941,63.42598,0,169.244047742686,6.011050649976779,8.139732248218543,-9999,2892.212287375,-1.00146484375,0.0343780517578125,-0.0341644287109375,2892.112889375,-0.3777722415450198,-1.528390772474733,-0.02728360728967809,-0.01399559341371059,-0.06724993139505386,-0.02960957400500774,0.008586406707763672,-0.00126492977142334,-0.005047261714935303,XArbitraryZVertical,-0.1395861164739364,-0.6777368055372811,-0.1262709371047045,0.710805453131482,-0.9987293481826782,0.02728022262454033,-0.04237707704305649,0,0,0,-1,-1,2892.066478375,unknown,2,2022-02-17 14:55:45.800 -0500,666820545.7999223,0,0.8399982,100.994,1,1
2022-02-17 14:55:46.043 -0500,1645127745.584376,34.01161219294617,-80.98460124639941,63.42598,0,169.244047742686,6.011050649976779,8.139732248218543,-9999,2892.311684375,-0.9898529052734375,0.029083251953125,-0.0364227294921875,2892.212287375,-0.3770987490641766,-1.533974369268193,-0.02699400127069105,0.03743670508265495,0.003744751214981079,0.01758909597992897,-0.002689898014068604,0.01100271567702293,0.002773050218820572,XArbitraryZVertical,-0.1396070694652084,-0.6797865494182439,-0.1257409812333709,0.7089353688915667,-0.9989581108093262,0.02699072286486626,-0.03680022805929184,0,0,0,-1,-1,2892.066478375,unknown,2,2022-02-17 14:55:45.800 -0500,666820545.7999223,0,0.8399982,100.994,1,1
2022-02-17 14:55:46.143 -0500,1645127745.584376,34.01161219294617,-80.98460124639941,63.42598,0,169.244047742686,6.011050649976779,8.139732248218543,-9999,2892.411081375,-0.9996337890625,0.032806396484375,-0.03094482421875,2892.311684375,-0.3768614938330868,-1.538499170832219,-0.02671709345516926,0.02188810519874096,-0.09747175127267838,-0.008543970994651318,0.00925368070602417,-0.001659929752349854,-0.00617218017578125,XArbitraryZVertical,-0.139712875227941,-0.6814251980667488,-0.1254357420321363,0.7073938801511203,-0.9991220235824585,0.02671391516923904,-0.03228002414107323,0,0,0,-1,-1,2892.066478375,unknown,2,2022-02-17 14:55:45.800 -0500,666820545.7999223,0,0.8399982,100.994,1,1
2022-02-17 14:55:46.243 -0500,1645127745.584376,34.01161219294617,-80.98460124639941,63.42598,0,169.244047742686,6.011050649976779,8.139732248218543,-9999,2892.510478375,-0.9946136474609375,0.0200042724609375,-0.035308837890625,2892.411081375,-0.3728581334847094,-1.537523276396357,-0.02680172875197394,0.042930006980896,0.201314240694046,-0.002447861479595304,0.00215458869934082,0.001871779561042786,0.005575478076934814,XArbitraryZVertical,-0.1383178862446549,-0.6813520949900581,-0.1240580232949214,0.7079811352304131,-0.9990877509117126,0.02679852023720741,-0.03325496986508369,0,0,0,-1,-1,2892.066478375,unknown,2,2022-02-17 14:55:45.800 -0500,666820545.7999223,0,0.8399982,100.994,1,1
2022-02-17 14:55:46.342 -0500,1645127745.584376,34.01161219294617,-80.98460124639941,63.42598,0,169.244047742686,6.011050649976779,8.139732248218543,-9999,2892.6098755,-0.99755859375,0.0294189453125,-0.03424072265625,2892.510478375,-0.3721355804027018,-1.535929102655295,-0.02633995780476459,0.007609034422785044,-0.004976999945938587,-0.005832473281770945,-0.0004203915596008301,-0.004807727411389351,-0.001422103494405746,XArbitraryZVertical,-0.1378101926304829,-0.6808702623797149,-0.1240702693649817,0.7085412992568791,-0.9990456700325012,0.0263369120657444,-0.03484807163476944,0,0,0,-1,-1,2892.066478375,unknown,2,2022-02-17 14:55:45.800 -0500,666820545.7999223,0,0.8399982,100.994,1,1
2022-02-17 14:55:46.441 -0500,1645127745.584376,34.01161219294617,-80.98460124639941,63.42598,0,169.244047742686,6.011050649976779,8.139732248218543,-9999,2892.7092725,-0.9954376220703125,0.02288818359375,-0.0316925048828125,2892.6098755,-0.3701414623716152,-1.538317358115769,-0.02396885561935641,0.03714748471975327,0.004135902971029282,-0.04231604933738708,0.003183305263519287,0.007602930068969727,-0.006079792976379395,XArbitraryZVertical,-0.1364431860472536,-0.6820200068951445,-0.1240123229583471,0.7077096957213169,-0.9991856217384338,0.02396656014025211,-0.03246393427252769,0,0,0,-1,-1,2892.066478375,unknown,2,2022-02-17 14:55:45.800 -0500,666820545.7999223,0,0.8399982,100.994,1,1
2022-02-17 14:55:46.541 -0500,1645127745.584376,34.01161219294617,-80.98460124639941,63.42598,0,169.244047742686,6.011050649976779,8.139732248218543,-9999,2892.8086695,-0.9900360107421875,0.0203857421875,-0.0409088134765625,2892.7092725,-0.3674100696870425,-1.537598390382806,-0.01979953357329587,0.0188803318887949,0.09708967804908752,-0.01121671870350838,0.0009468197822570801,0.006354359909892082,0.002484623342752457,XArbitraryZVertical,-0.1339972395506269,-0.6822404792198222,-0.124522326238422,0.7078749668545986,-0.9992532134056091,0.01979823969304562,-0.03318533673882484,0,0,0,-1,-1,2892.066478375,unknown,2,2022-02-17 14:55:45.800 -0500,666820545.7999223,0,0.8399982,100.994,1,1
2022-02-17 14:55:46.640 -0500,1645127745.584376,34.01161219294617,-80.98460124639941,63.42598,0,169.244047742686,6.011050649976779,8.139732248218543,-9999,2892.9080665,-0.9955291748046875,0.0231170654296875,-0.03564453125,2892.8086695,-0.366370088247968,-1.533361948222351,-0.01909704569359819,-0.01274524070322514,-0.02159229665994644,-0.01160660572350025,0.008684456348419189,-0.0008778572082519531,-0.004512310028076172,XArbitraryZVertical,-0.1331308693134398,-0.6808573727311679,-0.1246770620729561,0.7093414163124092,-0.999117374420166,0.0190958846360445,-0.03741881996393204,0,0,0,-1,-1,2892.066478375,unknown,2,2022-02-17 14:55:45.800 -0500,666820545.7999223,0,0.8399982,100.994,1,1
2022-02-17 14:55:46.739 -0500,1645127745.584376,34.01161219294617,-80.98460124639941,63.42598,0,169.244047742686,6.011050649976779,8.139732248218543,-9999,2893.0074635,-0.99249267578125,0.023162841796875,-0.045166015625,2892.9080665,-0.3685311733090081,-1.539272660201553,-0.01998924080919337,0.005428438074886799,-0.05488523840904236,-0.02016880176961422,0.003225028514862061,0.004608303308486938,-0.004758000373840332,XArbitraryZVertical,-0.1345510080620408,-0.6827444240105258,-0.1247415607374922,0.7072452390589511,-0.9993036985397339,0.01998790912330151,-0.03151215612888336,0,0,0,-1,-1,2892.066478375,unknown,2,2022-02-17 14:55:45.800 -0500,666820545.7999223,0,0.8399982,100.994,1,1
2022-02-17 14:55:46.839 -0500,1645127746.535952,34.01161219294617,-80.98460124639941,63.42598,0,169.244047742686,8.367756933791719,11.23277566307885,-9999,2893.1068605,-1.001022338867188,0.0268402099609375,-0.043426513671875,2893.0074635,-0.3663136840148437,-1.533456669522511,-0.01816992423167479,0.008803995326161385,0.03424710035324097,-0.01221314072608948,0.006935238838195801,0.003665447235107422,-0.004865765571594238,XArbitraryZVertical,-0.1327898733817615,-0.6809584696760169,-0.1249675360145225,0.709257128687428,-0.9991381168365479,0.01816892437636852,-0.03732482343912125,0,0,0,-1,-1,2892.066478375,unknown,2,2022-02-17 14:55:45.800 -0500,666820545.7999223,0,0.8399982,100.994,1,1
2022-02-17 14:55:46.938 -0500,1645127746.535952,34.01161219294617,-80.98460124639941,63.42598,0,169.244047742686,8.367756933791719,11.23277566307885,-9999,2893.2062575,-0.999786376953125,0.0252685546875,-0.0404205322265625,2893.1068605,-0.3664935197601188,-1.534548216199544,-0.01797738221794228,0.003888065693899989,0.03191803395748138,0.002961018588393927,-0.003046154975891113,0.01000726036727428,-0.005452688783407211,XArbitraryZVertical,-0.1328513048148453,-0.6813467329246002,-0.1250246063057678,0.70886254462764,-0.9991817474365234,0.01797641441226006,-0.03623431921005249,0,0,0,-1,-1,2892.066478375,unknown,2,2022-02-17 14:55:45.800 -0500,666820545.7999223,0,0.8399982,100.994,1,1
2022-02-17 14:55:47.038 -0500,1645127746.535952,34.01161219294617,-80.98460124639941,63.42598,0,169.244047742686,8.367756933791719,11.23277566307885,-9999,2893.3056545,-1.001220703125,0.0277252197265625,-0.0391082763671875,2893.2062575,-0.3681625355198548,-1.536077880275867,-0.01768354989379679,0.006834853440523148,-0.05200892314314842,-0.03373853862285614,0.0005991458892822266,0.009507579728960991,-0.012657281011343,XArbitraryZVertical,-0.1334121650689029,-0.6817977484512547,-0.1256145441368689,0.708218980293284,-0.9992412328720093,0.0176826287060976,-0.03470604866743088,0,0,0,-1,-1,2892.066478375,unknown,2,2022-02-17 14:55:45.800 -0500,666820545.7999223,0,0.8399982,100.994,1,1
2022-02-17 14:55:47.138 -0500,1645127746.535952,34.01161219294617,-80.98460124639941,63.42598,0,169.244047742686,8.367756933791719,11.23277566307885,-9999,2893.4050515,-0.9996490478515625,0.0271148681640625,-0.052154541015625,2893.3056545,-0.3667274439210749,-1.532573385285421,-0.01742711238238074,0.01269061211496592,-0.01344522088766098,0.01377891190350056,-0.0009279251098632812,0.01365496218204498,-0.002731502056121826,XArbitraryZVertical,-0.1326127962529366,-0.6806687352307805,-0.1254266234524903,0.7094873115470017,-0.9991180300712585,0.01742623001337051,-0.03820783644914627,0,0,0,-1,-1,2892.066478375,unknown,2,2022-02-17 14:55:45.800 -0500,666820545.7999223,0,0.8399982,100.994,1,1
2022-02-17 14:55:47.236 -0500,1645127746.535952,34.01161219294617,-80.98460124639941,63.42598,0,169.244047742686,8.367756933791719,11.23277566307885,-9999,2893.5044485,-0.9891815185546875,0.013763427734375,-0.0475921630859375,2893.4050515,-0.3672055774972895,-1.528303494049487,-0.01754315840776307,0.007809037808328867,-0.003337523899972439,-0.0009347870945930481,0.004726648330688477,0.003224000334739685,-0.009299576282501221,XArbitraryZVertical,-0.1325481940922952,-0.67911281685386,-0.1258398787017808,0.7109157874746344,-0.9989437460899353,0.01754225790500641,-0.04247351735830307,0,0,0,-1,-1,2892.066478375,unknown,2,2022-02-17 14:55:45.800 -0500,666820545.7999223,0,0.8399982,100.994,1,1
2022-02-17 14:55:47.336 -0500,1645127746.535952,34.01161219294617,-80.98460124639941,63.42598,0,169.244047742686,8.367756933791719,11.23277566307885,-9999,2893.603844041667,-0.99896240234375,0.021392822265625,-0.067840576171875,2893.5044485,-0.3661179557335643,-1.525477953100196,-0.01605060485263065,0.003061686875298619,0.03433738648891449,0.01191536523401737,0.009876787662506104,0.001161038875579834,-0.0008760690689086914,XArbitraryZVertical,-0.1314717896292014,-0.678282130814024,-0.1261476677255625,0.7118535997305891,-0.9988448619842529,0.01604991592466831,-0.0452970378100872,0,0,0,-1,-1,2892.066478375,unknown,2,2022-02-17 14:55:45.800 -0500,666820545.7999223,0,0.8399982,100.994,1,1
2022-02-17 14:55:47.435 -0500,1645127746.535952,34.01161219294617,-80.98460124639941,63.42598,0,169.244047742686,8.367756933791719,11.23277566307885,-9999,2893.703241041667,-0.9756011962890625,0.0186004638671875,-0.1449432373046875,2893.603844041667,-0.3591998357317309,-1.494086926840344,-0.01468424740737987,0.1239186003804207,0.6063957214355469,-0.01016290672123432,-0.000179588794708252,0.002450942061841488,0.005367346107959747,XArbitraryZVertical,-0.1266751592308488,-0.6675630579770908,-0.1261533446111587,0.7227713223725217,-0.9969518780708313,0.01468371972441673,-0.07662593573331833,0,0,0,-1,-1,2892.066478375,unknown,2,2022-02-17 14:55:45.800 -0500,666820545.7999223,0,0.8399982,100.994,1,1
2022-02-17 14:55:47.535 -0500,1645127746.535952,34.01161219294617,-80.98460124639941,63.42598,0,169.244047742686,8.367756933791719,11.23277566307885,-9999,2893.802638041667,-0.9626007080078125,-0.0153961181640625,-0.2367706298828125,2893.703241041667,-0.3420771811306632,-1.418561527958966,-0.01037336229721788,0.2012557238340378,0.8721354603767395,0.04739665985107422,0.007165014743804932,0.01091188192367554,0.009503722190856934,XArbitraryZVertical,-0.1147299268662014,-0.6411063730388915,-0.1258269544104508,0.7483230648409773,-0.9883816242218018,0.01037317607551813,-0.1516393274068832,0,0,0,-1,-1,2892.066478375,unknown,2,2022-02-17 14:55:45.800 -0500,666820545.7999223,0,0.8399982,100.994,1,1
2022-02-17 14:55:47.634 -0500,1645127746.535952,34.01161219294617,-80.98460124639941,63.42598,0,169.244047742686,8.367756933791719,11.23277566307885,-9999,2893.902035041667,-0.9364166259765625,0.0133056640625,-0.3861541748046875,2893.802638041667,-0.3131897646856617,-1.317150103978169,0.001520229142520811,0.4425751566886902,1.467052459716797,-0.1384270042181015,0.008148610591888428,-0.01924794912338257,0.02249559760093689,XArbitraryZVertical,-0.09484954589754185,-0.6045958139977133,-0.1237993427012284,0.7811154960550395,-0.9680029153823853,-0.001520228572189808,-0.2509349286556244,0,0,0,-1,-1,2892.066478375,unknown,2,2022-02-17 14:55:45.800 -0500,666820545.7999223,0,0.8399982,100.994,1,1
2022-02-17 14:55:47.733 -0500,1645127747.485942,34.01161219294617,-80.98460124639941,63.42598,0,169.244047742686,6.717199376581141,8.980518081008643,-9999,2894.001432041667,-0.844512939453125,0.0154876708984375,-0.511749267578125,2893.902035041667,-0.3070140475772333,-1.154679696227751,-0.005673374931229101,-0.3821104764938354,0.9746837615966797,0.03794097527861595,-0.02193361520767212,0.003221570514142513,0.01829499006271362,XArbitraryZVertical,-0.08580361365154326,-0.5390132024038874,-0.1265910900167201,0.8282977610066582,-0.9146507978439331,0.00567334471270442,-0.4042050242424011,0,0,0,-1,-1,2892.066478375,unknown,2,2022-02-17 14:55:45.800 -0500,666820545.7999223,0,0.8399982,100.994,1,1
2022-02-17 14:55:47.833 -0500,1645127747.485942,34.01161219294617,-80.98460124639941,63.42598,0,169.244047742686,6.717199376581141,8.980518081008643,-9999,2894.100829041667,-0.7540435791015625,0.017242431640625,-0.6352691650390625,2894.001432041667,-0.3333564590902666,-1.028258621794353,-0.01923494302161278,-0.06190452724695206,1.558725833892822,0.07587264478206635,0.009074866771697998,-0.003274008631706238,0.01685631275177002,XArbitraryZVertical,-0.08984365252126299,-0.4835497611193132,-0.1397884953655856,0.8593992991830742,-0.8562428951263428,0.01923375762999058,-0.5162155032157898,0,0,0,-1,-1,2892.066478375,unknown,2,2022-02-17 14:55:45.800 -0500,666820545.7999223,0,0.8399982,100.994,1,1
2022-02-17 14:55:47.932 -0500,1645127747.485942,34.01161219294617,-80.98460124639941,63.42598,0,169.244047742686,6.717199376581141,8.980518081008643,-9999,2894.200226041667,-0.60260009765625,0.02630615234375,-0.79425048828125,2894.100829041667,-0.3360906688174412,-0.8651337284672715,-0.02633262825916835,0.03453598916530609,1.911983013153076,-0.02588181383907795,0.0002521872520446777,-0.006570406258106232,0.01614183187484741,XArbitraryZVertical,-0.08189274377022196,-0.4112624634729968,-0.1463954674090138,0.8959493817063898,-0.760918140411377,0.02632958441972733,-0.6483135223388672,0,0,0,-1,-1,2892.066478375,unknown,2,2022-02-17 14:55:45.800 -0500,666820545.7999223,0,0.8399982,100.994,1,1
2022-02-17 14:55:48.032 -0500,1645127747.485942,34.01161219294617,-80.98460124639941,63.42598,0,169.244047742686,6.717199376581141,8.980518081008643,-9999,2894.299622041667,-0.4356231689453125,-0.021453857421875,-0.9235992431640625,2894.200226041667,-0.3283957654472665,-0.6645410930166108,-0.01625967173241192,0.3078543543815613,2.206479787826538,-0.1247609853744507,0.0009090304374694824,0.006246797740459442,0.001115560531616211,XArbitraryZVertical,-0.06089934893805498,-0.3205360438324519,-0.1518991285444765,0.932992295705461,-0.616616427898407,0.01625895500183105,-0.787095844745636,0,0,0,-1,-1,2892.066478375,unknown,2,2022-02-17 14:55:45.800 -0500,666820545.7999223,0,0.8399982,100.994,1,1
2022-02-17 14:55:48.131 -0500,1645127747.485942,34.01161219294617,-80.98460124639941,63.42598,0,169.244047742686,6.717199376581141,8.980518081008643,-9999,2894.399019041667,-0.280548095703125,-0.02264404296875,-0.964691162109375,2894.299622041667,-0.3358991085240789,-0.4246534206412739,0.01789828604037581,0.3124392628669739,1.973900198936462,-0.3943856954574585,-0.0330987274646759,2.832897007465363e-05,0.01301014423370361,XArbitraryZVertical,-0.02660030162724194,-0.2092238118702685,-0.1652599993518334,0.9634350073541686,-0.4119390249252319,-0.01789733022451401,-0.9110356569290161,0,0,0,-1,-1,2892.066478375,unknown,2,2022-02-17 14:55:45.800 -0500,666820545.7999223,0,0.8399982,100.994,1,1
2022-02-17 14:55:48.231 -0500,1645127747.485942,34.01161219294617,-80.98460124639941,63.42598,0,169.244047742686,6.717199376581141,8.980518081008643,-9999,2894.498416041667,-0.210723876953125,-0.063629150390625,-0.9875946044921875,2894.399019041667,-0.3467364214459093,-0.2998585348869616,0.04355861677407653,0.02683625742793083,1.13422417640686,-0.05497538670897484,0.0043792724609375,0.02386004105210304,-0.004924237728118896,XArbitraryZVertical,-0.004549574309254015,-0.1508086748078354,-0.173729515431216,0.9731671204567069,-0.2951048910617828,-0.04354484379291534,-0.9544720649719238,0,0,0,-1,-1,2892.066478375,unknown,2,2022-02-17 14:55:45.800 -0500,666820545.7999223,0,0.8399982,100.994,1,1
2022-02-17 14:55:48.330 -0500,1645127747.485942,34.01161219294617,-80.98460124639941,63.42598,0,169.244047742686,6.717199376581141,8.980518081008643,-9999,2894.597812666667,-0.13018798828125,-0.0601806640625,-0.9977874755859375,2894.498416041667,-0.347072856126755,-0.1939515845849003,0.05316621284200579,0.1441980302333832,1.11522114276886,0.04975009337067604,-0.01476395130157471,-0.01898809522390366,-0.004556953907012939,XArbitraryZVertical,0.009345390737282548,-0.09990381325470012,-0.1743296576267855,0.9795617306792279,-0.1924655437469482,-0.05314116925001144,-0.9798637628555298,0,0,0,-1,-1,2892.066478375,unknown,2,2022-02-17 14:55:45.800 -0500,666820545.7999223,0,0.8399982,100.994,1,1
2022-02-17 14:55:48.429 -0500,1645127747.485942,34.01161219294617,-80.98460124639941,63.42598,0,169.244047742686,6.717199376581141,8.980518081008643,-9999,2894.697209666667,-0.0773773193359375,-0.03790283203125,-1.0048828125,2894.597812666667,-0.3443792573008758,-0.1176094332198529,0.05961543162614594,-0.01884867250919342,0.6207355856895447,0.05782014131546021,-0.007518880069255829,-0.003393862396478653,-0.009725034236907959,XArbitraryZVertical,0.01924649498756574,-0.06297367255748003,-0.1726935183991629,0.9827720725218856,-0.1171300411224365,-0.05958012491464615,-0.9913277626037598,0,0,0,-1,-1,2892.066478375,unknown,2,2022-02-17 14:55:45.800 -0500,666820548.3491806,0,0.7599983,100.9933,1,1
2022-02-17 14:55:48.528 -0500,1645127747.485942,34.01161219294617,-80.98460124639941,63.42598,0,169.244047742686,6.717199376581141,8.980518081008643,-9999,2894.796606666667,0.0013427734375,-0.0438995361328125,-1.043380737304688,2894.697209666667,-0.3301817046654151,-0.05674852610220762,0.05793409023934622,-0.01808168180286884,0.9909372329711914,0.09976997971534729,-0.01347583904862404,0.02381258830428123,-0.004734277725219727,XArbitraryZVertical,0.02389719512479015,-0.03273088784043559,-0.1650173787413996,0.9854578511954655,-0.05662291496992111,-0.05790168792009354,-0.996715247631073,0,0,0,-1,-1,2892.066478375,unknown,2,2022-02-17 14:55:45.800 -0500,666820548.3491806,0,0.7599983,100.9933,1,1
2022-02-17 14:55:48.628 -0500,1645127748.435642,34.01161219294617,-80.98460124639941,63.42598,0,169.244047742686,13.00844307105438,17.24675845379263,-9999,2894.896003666667,0.04583740234375,-0.042510986328125,-0.9899444580078125,2894.796606666667,-0.3333322673344397,0.02930453426503157,0.04787081607884817,-0.09773389995098114,0.3724538683891296,-0.08701294660568237,-0.03033476136624813,0.003646854311227798,-0.03839385509490967,XArbitraryZVertical,0.02602891723053505,0.0104746058348713,-0.1654844726789037,0.9858132665502397,0.02926677465438843,-0.0478525348007679,-0.9984255433082581,0,0,0,-1,-1,2892.066478375,unknown,2,2022-02-17 14:55:45.800 -0500,666820548.3491806,0,0.7599983,100.9933,1,1
2022-02-17 14:55:48.727 -0500,1645127748.435642,34.01161219294617,-80.98460124639941,63.42598,0,169.244047742686,13.00844307105438,17.24675845379263,-9999,2894.995400666667,0.029388427734375,-0.034454345703125,-0.99603271484375,2894.896003666667,-0.3375485709239373,0.03296490451517809,0.04398311507849336,-0.001623612362891436,-0.05145422369241714,-0.002299257321283221,0.01278840005397797,0.01021552830934525,0.007920145988464355,XArbitraryZVertical,0.02444222634854853,0.01255038066938864,-0.1675534610011118,0.9854800909744507,0.03292705863714218,-0.04396893456578255,-0.9984901547431946,0,0,0,-1,-1,2892.066478375,unknown,2,2022-02-17 14:55:45.800 -0500,666820548.3491806,0,0.7599983,100.9933,1,1
2022-02-17 14:55:48.826 -0500,1645127748.435642,34.01161219294617,-80.98460124639941,63.42598,0,169.244047742686,13.00844307105438,17.24675845379263,-9999,2895.094796666667,-0.0041351318359375,-0.0619354248046875,-0.9980316162109375,2894.995400666667,-0.3320449919744061,0.01917365241600532,0.04401077193409434,-0.004347227048128843,-0.1741381883621216,0.06570642441511154,0.01331691443920135,0.01236413046717644,0.008018672466278076,XArbitraryZVertical,0.02328397829557551,0.005816404224933472,-0.1650051983588436,0.9860007347061296,0.01915391348302364,-0.04399656504392624,-0.9988480806350708,0,0,0,-1,-1,2892.066478375,unknown,2,2022-02-17 14:55:45.800 -0500,666820548.3491806,0,0.7599983,100.9933,1,1
2022-02-17 14:55:48.926 -0500,1645127748.435642,34.01161219294617,-80.98460124639941,63.42598,0,169.244047742686,13.00844307105438,17.24675845379263,-9999,2895.194193666667,-0.0123138427734375,-0.0446929931640625,-1.006622314453125,2895.094796666667,-0.328116859222355,0.006418385080718151,0.04499674033454151,-0.01169195957481861,-0.2861008048057556,0.1119871065020561,-0.004428082145750523,-0.01581042632460594,0.009083867073059082,XArbitraryZVertical,0.02271828964849669,-0.0005088879715289062,-0.1632100657329125,0.9863296728460981,0.006411844398826361,-0.04498155787587166,-0.9989672303199768,0,0,0,-1,-1,2892.066478375,unknown,2,2022-02-17 14:55:45.800 -0500,666820548.3491806,0,0.7599983,100.9933,1,1
2022-02-17 14:55:49.025 -0500,1645127748.435642,34.01161219294617,-80.98460124639941,63.42598,0,169.244047742686,13.00844307105438,17.24675845379263,-9999,2895.293590666667,-0.0113677978515625,-0.059295654296875,-0.991912841796875,2895.194193666667,-0.3203526549512855,-0.008788767092556524,0.05414755677224064,0.06453969329595566,0.02045565471053123,0.0225237999111414,0.002779180184006691,0.01015955954790115,-0.01079672574996948,XArbitraryZVertical,0.02602307573649304,-0.008654016200150182,-0.1595497137546613,0.9868089734985088,-0.008775773458182812,-0.05412109941244125,-0.9984958171844482,0,0,0,-1,-1,2892.066478375,unknown,2,2022-02-17 14:55:45.800 -0500,666820548.3491806,0,0.7599983,100.9933,1,1
2022-02-17 14:55:49.125 -0500,1645127748.435642,34.01161219294617,-80.98460124639941,63.42598,0,169.244047742686,13.00844307105438,17.24675845379263,-9999,2895.392987666667,-0.0076751708984375,-0.0506134033203125,-0.9979248046875,2895.293590666667,-0.317671509014236,-0.01134672938360089,0.06027065125405655,0.03182728961110115,0.02297710254788399,0.002698563970625401,0.00270477682352066,0.00493534654378891,0.00298762321472168,XArbitraryZVertical,0.0288540627567223,-0.01036504073675839,-0.1582631355324728,0.9869209978189947,-0.01132588367909193,-0.06023416668176651,-0.9981200098991394,0,0,0,-1,-1,2892.066478375,unknown,2,2022-02-17 14:55:45.800 -0500,666820548.3491806,0,0.7599983,100.9933,1,1
2022-02-17 14:55:49.224 -0500,1645127748.435642,34.01161219294617,-80.98460124639941,63.42598,0,169.244047742686,13.00844307105438,17.24675845379263,-9999,2895.492384666667,-0.0142059326171875,-0.051544189453125,-1.00146484375,2895.392987666667,-0.319251396476181,-0.01078851635631907,0.05571791341283001,-0.06082754582166672,-0.0205010324716568,-0.01792908273637295,0.00166217889636755,0.01111719757318497,-0.0001755356788635254,XArbitraryZVertical,0.02664374798136946,-0.009751092979409863,-0.1590330176748942,0.9868656090374188,-0.01077156513929367,-0.05568908900022507,-0.9983900785446167,0,0,0,-1,-1,2892.066478375,unknown,2,2022-02-17 14:55:45.800 -0500,666820548.3491806,0,0.7599983,100.9933,1,1
2022-02-17 14:55:49.324 -0500,1645127748.435642,34.01161219294617,-80.98460124639941,63.42598,0,169.244047742686,13.00844307105438,17.24675845379263,-9999,2895.591781916667,-0.0287628173828125,-0.05401611328125,-0.9942474365234375,2895.492384666667,-0.3201288500969244,-0.01577964829383791,0.05330007765405358,-0.001153298188000917,-0.04034937173128128,0.02421570755541325,-0.001729877665638924,0.004781443625688553,-0.002780318260192871,XArbitraryZVertical,0.02504840287955984,-0.01203301742260648,-0.1595277956965741,0.9868022983961152,-0.01575658470392227,-0.05327484384179115,-0.9984555840492249,0,0,0,-1,-1,2892.066478375,unknown,2,2022-02-17 14:55:45.800 -0500,666820548.3491806,0,0.7599983,100.9933,1,1
2022-02-17 14:55:49.423 -0500,1645127748.435642,34.01161219294617,-80.98460124639941,63.42598,0,169.244047742686,13.00844307105438,17.24675845379263,-9999,2895.691177916667,-0.0239105224609375,-0.0449066162109375,-0.988006591796875,2895.591781916667,-0.3157802573517361,-0.02254432390551488,0.0527112544091395,-0.05462344735860825,-0.1137188673019409,0.06053216755390167,-0.008891375735402107,0.002102993428707123,0.001149773597717285,XArbitraryZVertical,0.02425140339586514,-0.01527112939387444,-0.1574636802485558,0.9871088912068025,-0.02251110412180424,-0.05268684774637222,-0.9983572959899902,0,0,0,-1,-1,2892.066478375,unknown,2,2022-02-17 14:55:45.800 -0500,666820548.3491806,0,0.7599983,100.9933,1,1
2022-02-17 14:55:49.523 -0500,1645127748.435642,34.01161219294617,-80.98460124639941,63.42598,0,169.244047742686,13.00844307105438,17.24675845379263,-9999,2895.790574916667,-0.035552978515625,-0.0516510009765625,-1.01812744140625,2895.691177916667,-0.3110077551342412,-0.03535798998915513,0.05274912260268711,0.0257190614938736,-0.05829418450593948,0.07513494789600372,0.009086955338716507,1.983344554901123e-05,-0.001969218254089355,XArbitraryZVertical,0.02331223128344697,-0.02154241268166579,-0.1552604180432648,0.9873635712400267,-0.03530145436525345,-0.05272466316819191,-0.9979849457740784,0,0,0,-1,-1,2892.066478375,unknown,2,2022-02-17 14:55:45.800 -0500,666820548.3491806,0,0.7599983,100.9933,1,1
2022-02-17 14:55:49.622 -0500,1645127749.385627,34.01161219294617,-80.98460124639941,63.42598,0,169.244047742686,7.919482053395783,10.43139835086327,-9999,2895.889971916667,-0.0307159423828125,-0.0483551025390625,-0.9807586669921875,2895.790574916667,-0.3095311128281603,-0.02971331090380375,0.0541569450377145,-0.01509681157767773,0.006806222721934319,-0.002277685794979334,-0.007428636774420738,0.003455065190792084,-0.01637214422225952,XArbitraryZVertical,0.02445939220236273,-0.01884629499541363,-0.1544723571486234,0.9875145671157535,-0.029665382578969,-0.05413047596812248,-0.9980931282043457,0,0,0,-1,-1,2892.066478375,unknown,2,2022-02-17 14:55:45.800 -0500,666820548.3491806,0,0.7599983,100.9933,1,1
2022-02-17 14:55:49.721 -0500,1645127749.385627,34.01161219294617,-80.98460124639941,63.42598,0,169.244047742686,7.919482053395783,10.43139835086327,-9999,2895.989368916667,-0.0365142822265625,-0.067626953125,-1.013015747070312,2895.889971916667,-0.308191751705072,-0.03154747644184875,0.05486106945357874,0.01709681190550327,-0.02241032011806965,-0.05031765252351761,0.005081925541162491,-0.005546443164348602,0.00376659631729126,XArbitraryZVertical,0.02467868085589054,-0.01978948975245533,-0.1538373909250928,0.9875898021490378,-0.03149478882551193,-0.0548335537314415,-0.9979986548423767,0,0,0,-1,-1,2892.066478375,unknown,2,2022-02-17 14:55:45.800 -0500,666820548.3491806,0,0.7599983,100.9933,1,1
2022-02-17 14:55:49.821 -0500,1645127749.385627,34.01161219294617,-80.98460124639941,63.42598,0,169.244047742686,7.919482053395783,10.43139835086327,-9999,2896.088765916667,-0.032867431640625,-0.04803466796875,-0.9981842041015625,2895.989368916667,-0.3095667985690547,-0.031996185614421,0.05704555585992988,-0.01296068914234638,-0.1293598711490631,0.02830658853054047,0.003084417432546616,-0.01282582804560661,-0.01437515020370483,XArbitraryZVertical,0.02570910393005364,-0.02019581679580439,-0.1545344343872357,0.9874463772859,-0.03193868696689606,-0.05701462179422379,-0.9978623390197754,0,0,0,-1,-1,2892.066478375,unknown,2,2022-02-17 14:55:45.800 -0500,666820548.3491806,0,0.7599983,100.9933,1,1
2022-02-17 14:55:49.920 -0500,1645127749.385627,34.01161219294617,-80.98460124639941,63.42598,0,169.244047742686,7.919482053395783,10.43139835086327,-9999,2896.188161916667,-0.0349273681640625,-0.0785675048828125,-1.000961303710938,2896.088765916667,-0.3084580692418601,-0.03303032174096338,0.06109785512837686,0.01543499901890755,0.09525705873966217,-0.01898183114826679,0.002140041440725327,0.0149163044989109,0.004166305065155029,XArbitraryZVertical,0.02764177595971513,-0.02100227938681091,-0.1540241445147681,0.9874570569031059,-0.03296269476413727,-0.0610598511993885,-0.997589647769928,0,0,0,-1,-1,2892.066478375,unknown,2,2022-02-17 14:55:45.800 -0500,666820548.3491806,0,0.7599983,100.9933,1,1
