loggingTime(txt),locationTimestamp_since1970(s),locationLatitude(WGS84),locationLongitude(WGS84),locationAltitude(m),locationSpeed(m/s),locationCourse(°),locationVerticalAccuracy(m),locationHorizontalAccuracy(m),locationFloor(Z),accelerometerTimestamp_sinceReboot(s),accelerometerAccelerationX(G),accelerometerAccelerationY(G),accelerometerAccelerationZ(G),motionTimestamp_sinceReboot(s),motionYaw(rad),motionRoll(rad),motionPitch(rad),motionRotationRateX(rad/s),motionRotationRateY(rad/s),motionRotationRateZ(rad/s),motionUserAccelerationX(G),motionUserAccelerationY(G),motionUserAccelerationZ(G),motionAttitudeReferenceFrame(txt),motionQuaternionX(R),motionQuaternionY(R),motionQuaternionZ(R),motionQuaternionW(R),motionGravityX(G),motionGravityY(G),motionGravityZ(G),motionMagneticFieldX(µT),motionMagneticFieldY(µT),motionMagneticFieldZ(µT),motionHeading(°),motionMagneticFieldCalibrationAccuracy(Z),activityTimestamp_sinceReboot(s),activity(txt),activityActivityConfidence(Z),activityActivityStartDate(txt),pedometerStartDate(txt),pedometerNumberofSteps(N),pedometerAverageActivePace(s/m),pedometerCurrentPace(s/m),pedometerCurrentCadence(steps/s),pedometerDistance(m),pedometerFloorAscended(N),pedometerFloorDescended(N),pedometerEndDate(txt),altimeterTimestamp_sinceReboot(s),altimeterReset(bool),altimeterRelativeAltitude(m),altimeterPressure(kPa),batteryState(N),batteryLevel(R)
2021-11-22 14:58:36.261 -0500,1637611116.030508,33.99223093055138,-81.03089569656227,98.82301,-1,-1,2.235551118850708,35,-9999,546.7291201666667,0.0022430419921875,-0.0329742431640625,-0.9899444580078125,546.7241501666667,-0.0437256610448007,0.002823445210716214,0.01106700479334124,0.01940890960395336,0.009320927783846855,0.03279957175254822,0.01078767143189907,-0.02999469637870789,0.02328073978424072,XArbitraryZVertical,0.005563007781191505,0.001290395544496645,-0.0218529234341304,0.9997448458128041,0.0028232685290277,-0.01106677856296301,-0.9999347925186157,0,0,0,-1,-1,515.3492283750001,unknown,2,2021-11-22 14:58:04.902 -0500,,,,,,,,,,659303915.4523648,0,0.08000004,100.2125,1,0.21
2021-11-22 14:58:36.271 -0500,,,,,,,,,,546.7390611666667,-0.0003509521484375,-0.0224609375,-1.004379272460938,546.7340911666666,-0.04346411536508855,0.002767191054065358,0.01100972471535318,-0.03871005401015282,-0.02871353924274445,0.02230805158615112,-0.0005238773301243782,-0.02196481451392174,0.009991109371185303,XArbitraryZVertical,0.005533594899104968,0.001263625552348223,-0.02172238213666251,0.9997479405786859,0.002767019905149937,-0.01100950222462416,-0.9999355673789978,0,0,0,-1,-1,,,,,,,,,,,,,,,,,,1,0.21
2021-11-22 14:58:36.281 -0500,,,,,,,,,,546.7490021666667,-0.004486083984375,-0.0154571533203125,-0.9996795654296875,546.7440321666667,-0.04331613326854834,0.002235696651096027,0.01041415256023739,-0.07560654729604721,-0.07374812662601471,0.007268914487212896,-0.002586425514891744,-0.01204704493284225,-0.004435956478118896,XArbitraryZVertical,0.005230036193683912,0.001004804921063667,-0.02165024572247412,0.9997514813597069,0.002235573483631015,-0.01041396427899599,-0.9999432563781738,0,0,0,-1,-1,,,,,,,,,,,,,,,,,,1,0.21
2021-11-22 14:58:36.294 -0500,,,,,,,,,,546.7589431666667,-0.0185546875,-0.00262451171875,-1.0091552734375,546.7539731666667,-0.04330997796993482,0.001596059522738192,0.009737103177971964,-0.0474790446460247,-0.05248811095952988,-0.009323378093540668,-0.006081966683268547,-0.005720276385545731,0.0002717971801757812,XArbitraryZVertical,0.004884668850681618,0.0006924133495287165,-0.02164914762209669,0.9997535074057744,0.001595983165316284,-0.009736949577927589,-0.9999513030052185,0,0,0,-1,-1,,,,,,,,,,,,,,,,,,1,0.21
2021-11-22 14:58:36.300 -0500,,,,,,,,,,546.7688841666667,-0.0208740234375,0.00537109375,-1.021926879882812,546.7639141666667,-0.04355589037617422,0.001260314730021608,0.009649383771081432,0.02945275418460369,-0.02246636338531971,-0.03945092111825943,-0.01981484331190586,0.007024649530649185,-0.00920259952545166,XArbitraryZVertical,0.004837250599807452,0.000524937431410981,-0.0217729271996186,0.999751064973791,0.001260255696251988,-0.009649233892560005,-0.9999526739120483,0,0,0,-1,-1,,,,,,,,,,,,,,,,,,1,0.21
2021-11-22 14:58:36.310 -0500,,,,,,,,,,546.7788251666667,-0.011627197265625,-0.007965087890625,-1.019088745117188,546.7738551666667,-0.04403156565260112,0.001030893642358607,0.01018936965590884,0.07628710567951202,-0.02730505913496017,-0.05748850852251053,-0.02190476283431053,0.01556021347641945,-0.02197933197021484,XArbitraryZVertical,0.005104774317894942,0.0004031612820825979,-0.0220110900836497,0.9997446257373297,0.00103083997964859,-0.01018919330090284,-0.9999475479125977,0,0,0,-1,-1,,,,,,,,,,,,,,,,,,1,0.21
2021-11-22 14:58:36.320 -0500,,,,,,,,,,546.7887671666667,-0.0072784423828125,-0.016845703125,-1.008499145507812,546.7837961666667,-0.04470224628695941,0.0006601874641896604,0.01099861504423913,0.07736462354660034,-0.04255109280347824,-0.07669802010059357,-0.01228724420070648,0.003033232875168324,-0.01914942264556885,XArbitraryZVertical,0.005505283250161801,0.0002071014463298663,-0.02234710858169461,0.9997350756402872,0.0006601474597118795,-0.01099839340895414,-0.9999393224716187,0,0,0,-1,-1,,,,,,,,,,,,,,,,,,1,0.21
2021-11-22 14:58:36.330 -0500,,,,,,,,,,546.7987081666668,0.003204345703125,-0.0277252197265625,-0.9989776611328125,546.7937371666667,-0.04548525688729394,0.0002373311366080009,0.01172717214515892,0.06400966644287109,-0.04693279042840004,-0.0752284899353981,-0.007515656296163797,-0.005118872970342636,-0.008567929267883301,XArbitraryZVertical,0.005864734461412779,-1.470825142185292e-05,-0.02273958076564694,0.999724242043536,0.0002373148163314909,-0.01172690372914076,-0.9999312162399292,0,0,0,-1,-1,,,,,,,,,,,,,,,,,,1,0.21
2021-11-22 14:58:36.340 -0500,,,,,,,,,,546.8086491666667,0.0139007568359375,-0.0413818359375,-0.980255126953125,546.8036781666667,-0.04604175713879162,-0.0001349349880948736,0.01241340490881561,0.06612661480903625,-0.03058440983295441,-0.03646045923233032,0.003339371178299189,-0.01531220506876707,0.0009453296661376953,XArbitraryZVertical,0.006203464817220102,-0.0002103185071854941,-0.02301881969897105,0.9997157964770251,-0.0001349245867459103,-0.01241308636963367,-0.9999229311943054,0,0,0,-1,-1,,,,,,,,,,,,,,,,,,1,0.21
2021-11-22 14:58:36.350 -0500,,,,,,,,,,546.8185901666667,0.01025390625,-0.0318450927734375,-0.981597900390625,546.8136191666667,-0.04631657029313814,-0.0003709508035263466,0.01274499251273132,-0.003975242841988802,-0.02222714386880398,-0.02711542509496212,0.01427177805453539,-0.02863726019859314,0.01966363191604614,XArbitraryZVertical,0.006366449871252384,-0.0003329838344204676,-0.02315692768867268,0.9997114537416224,-0.0003709206648636609,-0.01274464745074511,-0.9999186992645264,0,0,0,-1,-1,,,,,,,,,,,,,,,,,,1,0.21
2021-11-22 14:58:36.360 -0500,,,,,,,,,,546.8285311666667,0.0015411376953125,-0.0196380615234375,-1.000335693359375,546.8235601666667,-0.046638112092866,-0.0007290343796568571,0.01257688562288006,-0.01975074410438538,-0.04931095987558365,-0.03933427482843399,0.01098298374563456,-0.01926861144602299,0.01832276582717896,XArbitraryZVertical,0.006278192274593807,-0.0005110371900473607,-0.02331877268640641,0.999708195591371,-0.0007289766799658537,-0.01257655397057533,-0.999920666217804,0,0,0,-1,-1,,,,,,,,,,,,,,,,,,1,0.21
2021-11-22 14:58:36.370 -0500,,,,,,,,,,546.8384721666667,0.0031585693359375,-0.0222625732421875,-1.011062622070312,546.8335011666667,-0.04701501029287495,-0.001137964115120825,0.01267720820390771,0.04674199596047401,-0.02230570837855339,-0.03523300588130951,0.00267911097034812,-0.006961265578866005,-0.0004166960716247559,XArbitraryZVertical,0.00632343575945136,-0.0007178034603549134,-0.02350847061320335,0.9997033418274746,-0.001137872459366918,-0.01267686858773232,-0.9999189972877502,0,0,0,-1,-1,,,,,,,,,,,,,,,,,,1,0.21
2021-11-22 14:58:36.380 -0500,,,,,,,,,,546.8484131666667,0.0138397216796875,-0.03594970703125,-1.0037841796875,546.8434421666667,-0.04719849662172318,-0.0009317011203288041,0.01350498873614417,0.1152331754565239,0.06060758605599403,-0.0005473303608596325,0.004090286325663328,-0.008758068084716797,-0.01115423440933228,XArbitraryZVertical,0.006739569773915496,-0.0006250479988096718,-0.02359966251290323,0.9996985587360415,-0.0009316159994341433,-0.01350457780063152,-0.9999083876609802,0,0,0,-1,-1,,,,,,,,,,,,,,,,,,1,0.21
2021-11-22 14:58:36.390 -0500,,,,,,,,,,546.8583541666667,0.02392578125,-0.0490875244140625,-0.986724853515625,546.8533831666667,-0.04698755162114483,-0.0001704327322697665,0.01472431269226384,0.1224729791283607,0.0901244580745697,0.0397108793258667,0.01401023659855127,-0.02122600004076958,-0.003892600536346436,XArbitraryZVertical,0.007358056503821449,-0.0002581379329360158,-0.02349160570343571,0.9996968961575435,-0.0001704142632661387,-0.01472378056496382,-0.9998915791511536,0,0,0,-1,-1,,,,,,,,,,,,,,,,,,1,0.21
2021-11-22 14:58:36.400 -0500,,,,,,,,,,546.8682951666667,0.02099609375,-0.0501708984375,-0.981536865234375,546.8633241666666,-0.04642461116377068,0.00048859373481277,0.01556943887092346,0.04093151167035103,0.04379907995462418,0.0730937272310257,0.02343734726309776,-0.03351878747344017,0.01315385103225708,XArbitraryZVertical,0.00778821342273406,6.354042472474347e-05,-0.02320761579834902,0.9997003325576672,0.0004885345115326345,-0.01556880958378315,-0.9998787045478821,0,0,0,-1,-1,,,,,,,,,,,,,,,,,,1,0.21
2021-11-22 14:58:36.410 -0500,,,,,,,,,,546.8782361666667,0.0138702392578125,-0.0418548583984375,-1.000717163085938,546.8732651666667,-0.04555044027040883,0.0007558400029939659,0.01544586223999021,-0.07269864529371262,0.01617703773081303,0.1004164293408394,0.02024044468998909,-0.03472572192549706,0.01834356784820557,XArbitraryZVertical,0.007729457064284474,0.0002019362254521075,-0.02276965240301376,0.9997108457220176,0.0007557497592642903,-0.01544524822384119,-0.9998804330825806,0,0,0,-1,-1,,,,,,,,,,,,,,,,,,1,0.21
2021-11-22 14:58:36.420 -0500,,,,,,,,,,546.8881771666667,-0.0027313232421875,-0.0164794921875,-1.033676147460938,546.8832071666667,-0.04459795218724854,0.0007381286218356021,0.01432807870917907,-0.1333777159452438,-0.0200390238314867,0.0865781158208847,0.01313228718936443,-0.0275273434817791,-0.0008200407028198242,XArbitraryZVertical,0.007170425203536847,0.0002092269571701002,-0.02229391051556025,0.9997257510530116,0.000738052767701447,-0.0143275884911418,-0.9998970627784729,0,0,0,-1,-1,,,,,,,,,,,,,,,,,,1,0.21
2021-11-22 14:58:36.430 -0500,,,,,,,,,,546.8981181666667,-0.02008056640625,0.0035247802734375,-1.037765502929688,546.8931481666667,-0.04398911683871989,0.000298109600979598,0.01353498797169461,-0.01850837841629982,-0.06748563051223755,0.03808221966028214,-0.003029305022209883,-0.002944990061223507,-0.03376775979995728,XArbitraryZVertical,0.006769083386880005,1.80435663273824e-07,-0.02199127252162986,0.9997352580028457,0.0002980823046527803,-0.01353457476943731,-0.9999083876609802,0,0,0,-1,-1,,,,,,,,,,,,,,,,,,1,0.21
2021-11-22 14:58:36.439 -0500,,,,,,,,,,546.9080591666667,-0.0228424072265625,0.0028228759765625,-1.03131103515625,546.9030891666667,-0.0438747741611213,-0.0002902730473428629,0.01414527975376753,0.1346819698810577,-0.04569149017333984,-0.009753345511853695,-0.01979022100567818,0.01766951382160187,-0.03786557912826538,XArbitraryZVertical,0.007067695561819487,-0.0003002394775256671,-0.02193610517195948,0.9997343367697016,-0.0002902440028265119,-0.01414480805397034,-0.9998999238014221,0,0,0,-1,-1,,,,,,,,,,,,,,,,,,1,0.21
2021-11-22 14:58:36.450 -0500,,,,,,,,,,546.9180001666667,-0.0198516845703125,-0.0127410888671875,-1.0115966796875,546.9130301666667,-0.04411335656157765,-0.0005044645099017475,0.01597566046408087,0.2201859503984451,-0.00613715685904026,-0.03676126152276993,-0.022337906062603,0.01879778504371643,-0.03143876791000366,XArbitraryZVertical,0.007980238780632564,-0.0004283316383994118,-0.02205619835857309,0.9997248591341872,-0.0005044001154601574,-0.01597498171031475,-0.9998722672462463,0,0,0,-1,-1,,,,,,,,,,,,,,,,,,1,0.21
2021-11-22 14:58:36.464 -0500,,,,,,,,,,546.9279411666668,-0.0113372802734375,-0.025177001953125,-0.9877166748046875,546.9229711666667,-0.04455306247121221,-0.0005945997917489556,0.01818739864276975,0.2127179205417633,-0.0101345619186759,-0.04815666005015373,-0.01925708167254925,0.005445236340165138,-0.01176220178604126,XArbitraryZVertical,0.009084695041558993,-0.0004997703272550731,-0.02227646889301981,0.999710483633203,-0.0005945014418102801,-0.01818639598786831,-0.999834418296814,0,0,0,-1,-1,,,,,,,,,,,,,,,,,,1,0.21
2021-11-22 14:58:36.469 -0500,,,,,,,,,,546.9378821666667,-0.0035247802734375,-0.0367889404296875,-0.9847259521484375,546.9329121666667,-0.04498242093529752,-0.0005611567676785205,0.02010168947797294,0.1718980520963669,0.01526560261845589,-0.03568347916007042,-0.01077613607048988,-0.005076739937067032,0.01208114624023438,XArbitraryZVertical,0.01004182425143655,-0.0005065261180689905,-0.02249099859948367,0.9996964033311037,-0.0005610433872789145,-0.02010033652186394,-0.9997978210449219,0,0,0,-1,-1,,,,,,,,,,,,,,,,,,1,0.21
2021-11-22 14:58:36.479 -0500,,,,,,,,,,546.9478231666667,0.004638671875,-0.0450897216796875,-0.9893341064453125,546.9428531666667,-0.04521932322516668,-0.0002172929023660597,0.02176018167618453,0.1601777374744415,0.03898215293884277,-0.00671827420592308,-0.003307437989860773,-0.01503054797649384,0.01503729820251465,XArbitraryZVertical,0.01087463873534794,-0.0003545815728306305,-0.02260757778222307,0.999685255024454,-0.0002172414533561096,-0.02175846509635448,-0.9997632503509521,0,0,0,-1,-1,,,,,,,,,,,,,,,,,,1,0.21
2021-11-22 14:58:36.489 -0500,,,,,,,,,,546.9577641666667,0.014373779296875,-0.0529632568359375,-0.9815673828125,546.9527941666666,-0.04517404380979771,0.0002228705143086871,0.02340861676847217,0.1584171205759048,0.04158219695091248,0.01471404638141394,0.004415962845087051,-0.02168331481516361,0.0103919506072998,XArbitraryZVertical,0.01170357214543219,-0.0001529377458553217,-0.02258225015887904,0.9996764806263914,0.0002228094526799396,-0.02340647950768471,-0.9997259974479675,0,0,0,-1,-1,,,,,,,,,,,,,,,,,,1,0.21
2021-11-22 14:58:36.499 -0500,,,,,,,,,,546.9677051666667,0.02337646484375,-0.056976318359375,-0.98748779296875,546.9627351666667,-0.04490875534999878,0.0006750361138595839,0.02480255409776777,0.1170824766159058,0.04824882000684738,0.03648192808032036,0.01369905192404985,-0.02816331759095192,0.01812481880187988,XArbitraryZVertical,0.01240540941914954,5.897463096044759e-05,-0.0224465777435987,0.9996711089649412,0.0006748284213244915,-0.0248000118881464,-0.9996922016143799,0,0,0,-1,-1,,,,,,,,,,,,,,,,,,1,0.21
2021-11-22 14:58:36.509 -0500,,,,,,,,,,546.9776461666667,0.0230255126953125,-0.05206298828125,-0.998382568359375,546.9726761666667,-0.04425521377692641,0.001095407643135383,0.02579778266297692,0.08320227265357971,0.03400037437677383,0.09490688890218735,0.02228152193129063,-0.03118146769702435,0.01217889785766602,XArbitraryZVertical,0.01290749161381435,0.0002621338089624415,-0.0221168946750842,0.9996720194717853,0.001095042913220823,-0.02579492144286633,-0.9996666312217712,0,0,0,-1,-1,,,,,,,,,,,,,,,,,,1,0.21
2021-11-22 14:58:36.519 -0500,,,,,,,,,,546.9875881666667,0.0048675537109375,-0.0305328369140625,-1.005813598632812,546.9826171666667,-0.04311783310772051,0.001247050872629901,0.02640635986809179,0.04521973431110382,0.007367866113781929,0.1220243871212006,0.02177899703383446,-0.02565976977348328,0.00126802921295166,XArbitraryZVertical,0.01321316618671231,0.0003387102798272743,-0.02154713340843141,0.9996804411649309,0.001246615778654814,-0.02640329115092754,-0.9996505975723267,0,0,0,-1,-1,,,,,,,,,,,,,,,,,,1,0.21
2021-11-22 14:58:36.529 -0500,,,,,,,,,,546.9975291666667,-0.0078125,-0.0193939208984375,-1.017257690429688,546.9925581666668,-0.04222497779324794,0.001182419817405411,0.02654608455643186,0.001051208004355431,-0.008440126664936543,0.05360458791255951,0.003685650881379843,-0.003989940509200096,-0.006166577339172363,XArbitraryZVertical,0.01328217325342601,0.0003108281674477569,-0.02110121377545224,0.9996889834609682,0.001182002946734428,-0.02654296718537807,-0.9996469616889954,0,0,0,-1,-1,,,,,,,,,,,,,,,,,,1,0.21
2021-11-22 14:58:36.539 -0500,,,,,,,,,,547.0074701666667,0.00054931640625,-0.03240966796875,-1.025436401367188,547.0024991666667,-0.04196626092624859,0.001010101894043884,0.02690651253142952,0.09034886956214905,-0.01697269454598427,0.0100437942892313,-0.008822135627269745,0.007509272545576096,-0.01762014627456665,XArbitraryZVertical,0.01346048395648806,0.0002226318622186454,-0.02097289783864157,0.9996893375036267,0.001009736093692482,-0.02690326608717442,-0.9996375441551208,0,0,0,-1,-1,,,,,,,,,,,,,,,,,,1,0.21
2021-11-22 14:58:36.549 -0500,,,,,,,,,,547.0174111666666,0.01190185546875,-0.0422821044921875,-1.014297485351562,547.0124401666667,-0.04182273021881486,0.0009443669995403741,0.02849770743530182,0.2283783704042435,0.01261635683476925,0.02230978198349476,-0.0003945666248910129,-0.00391588918864727,-0.02584284543991089,XArbitraryZVertical,0.01425512819083693,0.0001741011387948578,-0.0209009914149851,0.9996798249262404,0.0009439834393560886,-0.0284938495606184,-0.9995934963226318,0,0,0,-1,-1,,,,,,,,,,,,,,,,,,1,0.21
2021-11-22 14:58:36.559 -0500,,,,,,,,,,547.0273521666667,0.0167236328125,-0.0404815673828125,-1.006942749023438,547.0223811666667,-0.04147290495775251,0.001085032979122931,0.03101540276320249,0.2631408870220184,0.01410583034157753,0.04873752593994141,0.01081744488328695,-0.01127174496650696,-0.01477897167205811,XArbitraryZVertical,0.01551499105973484,0.000220795882683563,-0.02072405872409133,0.9996648365842483,0.001084510935470462,-0.03101043030619621,-0.9995184540748596,0,0,0,-1,-1,,,,,,,,,,,,,,,,,,1,0.21
2021-11-22 14:58:36.569 -0500,,,,,,,,,,547.0372931666667,0.0211944580078125,-0.0522613525390625,-0.9955291748046875,547.0323221666667,-0.04077951739873282,0.001068394313212369,0.03385874547531905,0.3116317093372345,-0.008099607191979885,0.09617161750793457,0.01565595157444477,-0.00662936270236969,-0.007516443729400635,XArbitraryZVertical,0.01693593231445261,0.0001888641964369753,-0.0203763796610791,0.9996489296932398,0.001067781704477966,-0.03385227546095848,-0.9994263052940369,0,0,0,-1,-1,,,,,,,,,,,,,,,,,,1,0.21
2021-11-22 14:58:36.579 -0500,,,,,,,,,,547.0472341666667,0.03106689453125,-0.07037353515625,-0.9970550537109375,547.0422631666667,-0.03947862833700378,0.001131606450041971,0.03723000982853373,0.3543115258216858,0.03145109862089157,0.1725549399852753,0.02006373554468155,-0.01504001021385193,0.003777265548706055,XArbitraryZVertical,0.01862146718176874,0.0001981926507775823,-0.01972408037984762,0.9996319787145685,0.001130821998231113,-0.03722140938043594,-0.9993063807487488,0,0,0,-1,-1,,,,,,,,,,,,,,,,,,1,0.21
2021-11-22 14:58:36.589 -0500,,,,,,,,,,547.0571751666668,0.008544921875,-0.05633544921875,-0.9875030517578125,547.0522041666667,-0.03737041695973672,0.001311994252162619,0.04077028153059973,0.3369000554084778,0.005988350138068199,0.2488329261541367,0.0297560915350914,-0.02961461991071701,0.002113103866577148,XArbitraryZVertical,0.02039242147208118,0.0002748942893591192,-0.01866686677035041,0.9996176893586701,0.001310903578996658,-0.04075898602604866,-0.9991681575775146,0,0,0,-1,-1,,,,,,,,,,,,,,,,,,1,0.21
2021-11-22 14:58:36.599 -0500,,,,,,,,,,547.0671161666667,-0.03924560546875,-0.0382537841796875,-0.970245361328125,547.0621451666667,-0.03501934818602103,0.001095840659694833,0.04364591340248954,0.2294875681400299,-0.03275661915540695,0.2055460512638092,0.007450224831700325,-0.01270346343517303,0.01154404878616333,XArbitraryZVertical,0.02182746847105719,0.000165642887550185,-0.01749265408900542,0.9996086472244595,0.001094796811230481,-0.04363205656409264,-0.9990470409393311,0,0,0,-1,-1,,,,,,,,,,,,,,,,,,1,0.21
2021-11-22 14:58:36.609 -0500,,,,,,,,,,547.0770571666667,-0.0467681884765625,-0.0294647216796875,-0.9914093017578125,547.0720861666667,-0.03362423961999532,0.0008144681089542368,0.04515420988167029,0.07323432713747025,-0.01570066809654236,0.06999488174915314,-0.04005914181470871,0.006885010749101639,0.02873504161834717,XArbitraryZVertical,0.02257884008886524,2.755385537862517e-05,-0.01679785064537807,0.9996038943123497,0.0008136378601193428,-0.04513886570930481,-0.9989804029464722,0,0,0,-1,-1,,,,,,,,,,,,,,,,,,1,0.21
2021-11-22 14:58:36.618 -0500,,,,,,,,,,547.0869981666667,-0.022186279296875,-0.036651611328125,-1.028335571289062,547.0820281666666,-0.03335496863658912,0.0006467747292371952,0.04543222236020814,0.008193805813789368,-0.003859088756144047,-0.005476042628288269,-0.04741419479250908,0.01595180109143257,0.007558643817901611,XArbitraryZVertical,0.02271638894213707,-5.553845079408469e-05,-0.01666506308304523,0.9996030540613545,0.0006461073062382638,-0.04541659355163574,-0.9989679455757141,0,0,0,-1,-1,,,,,,,,,,,,,,,,,,1,0.21
2021-11-22 14:58:36.628 -0500,,,,,,,,,,547.0969391666667,-0.0069122314453125,-0.0417327880859375,-1.037979125976562,547.0919691666667,-0.03342170337678593,0.0005974531642508494,0.04587893749517021,0.09143011271953583,-0.01558791659772396,-0.003670952282845974,-0.02278300374746323,0.009211160242557526,-0.02938801050186157,XArbitraryZVertical,0.02293924459086137,-8.468033055372076e-05,-0.01669882635129084,0.999597348633791,0.0005968244513496757,-0.04586284607648849,-0.9989475607872009,0,0,0,-1,-1,,,,,,,,,,,,,,,,,,1,0.21
2021-11-22 14:58:36.638 -0500,,,,,,,,,,547.1068801666667,-0.0160064697265625,-0.03424072265625,-1.0189208984375,547.1019101666667,-0.03335621429904691,0.000363292962251388,0.04720997648916769,0.169538214802742,-0.03013783134520054,0.009673614986240864,-0.007275019772350788,0.005459580570459366,-0.03909337520599365,XArbitraryZVertical,0.02360254316872491,-0.000212061147517219,-0.01666840186359375,0.9995823728646438,0.0003628881822805852,-0.04719244316220284,-0.9988857507705688,0,0,0,-1,-1,,,,,,,,,,,,,,,,,,1,0.21
2021-11-22 14:58:36.649 -0500,,,,,,,,,,547.1168211666667,-0.0151519775390625,-0.0502777099609375,-1.000503540039062,547.1118511666667,-0.03338022807198738,0.0001984519640762117,0.04903531431110059,0.1956164240837097,-0.005151255056262016,-0.00950993224978447,-0.01620458252727985,0.0147748701274395,-0.02012288570404053,XArbitraryZVertical,0.02451344170939808,-0.0003099601473989259,-0.0166818908994662,0.9995602661508355,0.000198213427211158,-0.04901566728949547,-0.9987980127334595,0,0,0,-1,-1,,,,,,,,,,,,,,,,,,1,0.21
2021-11-22 14:58:36.658 -0500,,,,,,,,,,547.1267621666667,-0.0016937255859375,-0.0713348388671875,-0.9734649658203125,547.1217921666668,-0.03338639811289257,0.0003773429618498946,0.05113070043452141,0.2263780683279037,0.04141994193196297,0.007590624038130045,-0.01552872732281685,0.0008306428790092468,-0.00181049108505249,XArbitraryZVertical,0.02556215388617516,-0.0002381177105091377,-0.01668214792745265,0.9995339209772857,0.0003768498136196285,-0.05110842362046242,-0.99869304895401,0,0,0,-1,-1,,,,,,,,,,,,,,,,,,1,0.21
2021-11-22 14:58:36.668 -0500,,,,,,,,,,547.1367031666667,-0.001434326171875,-0.0789794921875,-0.9582366943359375,547.1317331666667,-0.03318847738032189,0.001081976671818204,0.05322213904866191,0.1769591122865677,0.09148657321929932,0.02793477848172188,-0.00277407024987042,-0.01813789457082748,0.02511847019195557,XArbitraryZVertical,0.02661323500697764,9.920432655311415e-05,-0.0165732069485439,0.9995084160876161,0.001080444431863725,-0.05319701507687569,-0.9985834360122681,0,0,0,-1,-1,,,,,,,,,,,,,,,,,,1,0.21
2021-11-22 14:58:36.678 -0500,,,,,,,,,,547.1466441666666,0.015289306640625,-0.0855865478515625,-0.966217041015625,547.1416741666667,-0.03286992961378262,0.002024762564089252,0.05435990139747431,0.05588090047240257,0.0912916287779808,0.03226161748170853,-0.003455996979027987,-0.02464643120765686,0.04028415679931641,XArbitraryZVertical,0.02718955199426024,0.0005652443084263695,-0.01640063732834456,0.99949557566791,0.002021770225837827,-0.05433313176035881,-0.9985207915306091,0,0,0,-1,-1,,,,,,,,,,,,,,,,,,1,0.21
2021-11-22 14:58:36.688 -0500,,,,,,,,,,547.1565851666667,0.02716064453125,-0.0890350341796875,-0.983642578125,547.1516151666667,-0.03241773287678723,0.002568103282165268,0.05452456500187436,-0.01864100433886051,0.03187756985425949,0.06147782504558563,0.01272512227296829,-0.03108906745910645,0.03229361772537231,XArbitraryZVertical,0.02727610530042124,0.0008415892856985706,-0.01616712241605677,0.9994968911718753,0.002564284019172192,-0.05449755117297173,-0.9985105991363525,0,0,0,-1,-1,,,,,,,,,,,,,,,,,,1,0.21
2021-11-22 14:58:36.698 -0500,,,,,,,,,,547.1665261666667,0.0286712646484375,-0.0803680419921875,-0.9981231689453125,547.1615561666667,-0.031826166299144,0.002625673625442087,0.05388980930359513,-0.1030466929078102,0.0002174116671085358,0.06025450304150581,0.02453888580203056,-0.03517137467861176,0.01490229368209839,XArbitraryZVertical,0.02695909411186086,0.0008834875664320519,-0.01587125703608519,0.999510096929632,0.002621858846396208,-0.05386373028159142,-0.9985448718070984,0,0,0,-1,-1,,,,,,,,,,,,,,,,,,1,0.21
2021-11-22 14:58:36.708 -0500,,,,,,,,,,547.1764671666667,0.0291748046875,-0.073211669921875,-1.012008666992188,547.1714971666667,-0.03116125782017543,0.002408064939947604,0.05275759367130248,-0.112607441842556,-0.02840358018875122,0.07490029186010361,0.02626665309071541,-0.02763498947024345,0.0004825592041015625,XArbitraryZVertical,0.02639127050852096,0.0007925335486769865,-0.01554281416384289,0.9995304988241061,0.00240471214056015,-0.05273312330245972,-0.9986057281494141,0,0,0,-1,-1,,,,,,,,,,,,,,,,,,1,0.21
2021-11-22 14:58:36.718 -0500,,,,,,,,,,547.1864081666668,0.0220184326171875,-0.061981201171875,-1.031143188476562,547.1814381666667,-0.03029977499443398,0.002073184058906412,0.05190961764455582,-0.04873818531632423,-0.0256919153034687,0.09671197831630707,0.02710451371967793,-0.02132543548941612,-0.01335781812667847,XArbitraryZVertical,0.02596460095735165,0.0006429707604020156,-0.01511729893269766,0.9995483495187857,0.002070389920845628,-0.05188630893826485,-0.998650848865509,0,0,0,-1,-1,,,,,,,,,,,,,,,,,,1,0.21
2021-11-22 14:58:36.728 -0500,,,,,,,,,,547.1963501666667,0.004302978515625,-0.0442047119140625,-1.038070678710938,547.1913791666667,-0.02928391664269471,0.001761810322020961,0.05199945811292031,0.06988859921693802,-0.01955625973641872,0.1033626869320869,0.02025910466909409,-0.01000524684786797,-0.03249639272689819,XArbitraryZVertical,0.02600689761343246,0.0004998826073141937,-0.01461358339076608,0.9995547771979815,0.001759428065270185,-0.051976028829813,-0.9986467957496643,0,0,0,-1,-1,,,,,,,,,,,,,,,,,,1,0.21
2021-11-22 14:58:36.738 -0500,,,,,,,,,,547.2062911666667,-0.006011962890625,-0.036224365234375,-1.0322265625,547.2013201666667,-0.02839396982950218,0.001557840807612789,0.05308517447224295,0.153412252664566,-0.00532356183975935,0.07513092458248138,0.002747432328760624,0.008855458348989487,-0.03948056697845459,XArbitraryZVertical,0.02654784137591846,0.0004017998110326644,-0.01417083270477787,0.9995470489698259,0.001555645721964538,-0.05306024476885796,-0.9985901117324829,0,0,0,-1,-1,,,,,,,,,,,,,,,,,,1,0.21
2021-11-22 14:58:36.748 -0500,,,,,,,,,,547.2162321666667,0.00628662109375,-0.0575714111328125,-1.029312133789062,547.2112611666666,-0.02772461453635143,0.001579661965340123,0.05516523387729807,0.2581586241722107,0.01501473411917686,0.06735235452651978,-0.00758912181481719,0.01891282200813293,-0.03374898433685303,XArbitraryZVertical,0.02758740533005739,0.0004071567456410781,-0.0138348053991761,0.9995235780389926,0.00157725834287703,-0.05513725802302361,-0.9984775185585022,0,0,0,-1,-1,,,,,,,,,,,,,,,,,,1,0.21
2021-11-22 14:58:36.758 -0500,,,,,,,,,,547.2261731666667,0.011962890625,-0.0836334228515625,-1.000808715820312,547.2212021666667,-0.0267425130491072,0.001633496334894058,0.05811032739490438,0.3220963478088379,0.003737112507224083,0.1367178559303284,0.004655981902033091,0.0005061440169811249,-0.03100138902664185,XArbitraryZVertical,0.02905938600896791,0.0004278926763055583,-0.01334148528094585,0.9994885259364801,0.001630738377571106,-0.05807762965559959,-0.9983107447624207,0,0,0,-1,-1,,,,,,,,,,,,,,,,,,1,0.21
2021-11-22 14:58:36.768 -0500,,,,,,,,,,547.2361141666667,-0.017578125,-0.0742645263671875,-0.969207763671875,547.2311431666667,-0.02530908839348104,0.001501026368002852,0.06094824618216549,0.2178618162870407,-0.02208995819091797,0.1354400664567947,0.01046475116163492,-0.02272297441959381,-0.002666592597961426,XArbitraryZVertical,0.03047645075700338,0.0003645385382901533,-0.01262546153958972,0.9994556887545981,0.001498238765634596,-0.06091051921248436,-0.9981421232223511,0,0,0,-1,-1,,,,,,,,,,,,,,,,,,1,0.21
2021-11-22 14:58:36.778 -0500,,,,,,,,,,547.2460551666667,-0.0289459228515625,-0.0618896484375,-0.966583251953125,547.2410841666667,-0.02436053214504566,0.001055555989694705,0.06238209698844798,0.07901924848556519,-0.05423387885093689,0.05368807911872864,-0.01863152906298637,-0.01192295551300049,0.02884656190872192,XArbitraryZVertical,0.03119009790134165,0.0001476379184776282,-0.01215758047511184,0.999439543894641,0.001053502550348639,-0.06234164535999298,-0.9980543255805969,0,0,0,-1,-1,,,,,,,,,,,,,,,,,,1,0.21
2021-11-22 14:58:36.787 -0500,,,,,,,,,,547.2559961666667,-0.0213470458984375,-0.0713348388671875,-0.97119140625,547.2510251666668,-0.02402838015075414,0.0005396144576378333,0.06289053816867443,0.02118204161524773,-0.04772937297821045,0.01902810297906399,-0.02948437072336674,0.0009593665599822998,0.03143966197967529,XArbitraryZVertical,0.03144105695936911,-0.0001080637054110798,-0.01199947931130437,0.9994335651823433,0.000538547639735043,-0.06284908950328827,-0.9980229139328003,0,0,0,-1,-1,,,,,,,,,,,,,,,,,,1,0.21
2021-11-22 14:58:36.798 -0500,,,,,,,,,,547.2659371666667,-0.0067291259765625,-0.0779876708984375,-0.9847412109375,547.2609661666667,-0.02388121792366833,0.0003165644260002822,0.06264306257731962,-0.0709683895111084,0.006706370040774345,0.01230148877948523,-0.02166289091110229,-0.008732810616493225,0.02684712409973145,XArbitraryZVertical,0.03131606687722416,-0.0002157348332010478,-0.0119295122941588,0.9994382991103392,0.0003159435000270605,-0.06260210275650024,-0.9980385303497314,0,0,0,-1,-1,,,,,,,,,,,,,,,,,,1,0.21
2021-11-22 14:58:36.807 -0500,,,,,,,,,,547.2758781666666,0.004302978515625,-0.0772857666015625,-1.00762939453125,547.2709071666667,-0.0237118114170701,0.0004975703372106798,0.06182711092396544,-0.07952885329723358,0.01724796183407307,0.02016127854585648,-0.007225646637380123,-0.01620001718401909,0.01334798336029053,XArbitraryZVertical,0.0309094069001002,-0.000117792408497703,-0.01184227410514272,0.9994520248366912,0.000496619613841176,-0.06178772822022438,-0.9980891942977905,0,0,0,-1,-1,,,,,,,,,,,,,,,,,,1,0.21
2021-11-22 14:58:36.817 -0500,,,,,,,,,,547.2858191666667,0.0009002685546875,-0.0648345947265625,-1.016586303710938,547.2808491666667,-0.02342468878825842,0.0004873971353076759,0.06128461873301703,-0.03037862107157707,-0.01631659083068371,0.0345977395772934,0.00381659553386271,-0.01603957638144493,-0.009506821632385254,XArbitraryZVertical,0.03063826596744087,-0.000115261476854209,-0.01169911276488696,0.9994620275355388,0.0004864821094088256,-0.06124626472592354,-0.9981225728988647,0,0,0,-1,-1,,,,,,,,,,,,,,,,,,1,0.21
2021-11-22 14:58:36.827 -0500,,,,,,,,,,547.2957601666667,-0.007354736328125,-0.0620880126953125,-1.00726318359375,547.2907901666667,-0.02306872467763729,0.0001466527922715211,0.06128926867383,0.03203442320227623,-0.04503745213150978,0.03541160374879837,0.0007539901416748762,-0.003583762794733047,-0.01846390962600708,XArbitraryZVertical,0.03063864517927788,-0.0002801160610473228,-0.01152644456322756,0.9994640286785069,0.0001463774387957528,-0.06125090643763542,-0.9981223940849304,0,0,0,-1,-1,,,,,,,,,,,,,,,,,,1,0.21
2021-11-22 14:58:36.837 -0500,,,,,,,,,,547.3057011666667,-0.0140838623046875,-0.0696258544921875,-0.996795654296875,547.3007311666667,-0.02282999326645809,-0.000242184287287135,0.06169519393250651,0.0371551513671875,-0.0273425430059433,0.00983487069606781,-0.007112913765013218,-0.0004320219159126282,-0.009165763854980469,XArbitraryZVertical,0.03083931172329147,-0.0004730882977128768,-0.01141305193136835,0.9994591448648702,-0.0002417235227767378,-0.06165606155991554,-0.9980974197387695,0,0,0,-1,-1,,,,,,,,,,,,,,,,,,1,0.21
2021-11-22 14:58:36.847 -0500,,,,,,,,,,547.3156421666667,-0.0061798095703125,-0.07373046875,-1.003936767578125,547.3106721666667,-0.02289700357875879,-0.0003461044833840861,0.06200310513913515,0.02142066136002541,-0.005568538792431355,-0.01824763044714928,-0.01373832393437624,-0.007662538439035416,0.001282751560211182,XArbitraryZVertical,0.03099257477698579,-0.0005278144696999552,-0.01144811415722502,0.9994539169181281,-0.0003454394172877073,-0.06196338683366776,-0.9980783462524414,0,0,0,-1,-1,,,,,,,,,,,,,,,,,,1,0.21
2021-11-22 14:58:36.857 -0500,,,,,,,,,,547.3255831666667,0.0035552978515625,-0.0741729736328125,-1.005874633789062,547.3206131666667,-0.0229965899330484,-0.0004686720399972156,0.06221341525958549,0.02046219073235989,-0.01196089200675488,0.001163218170404434,-0.005711945239454508,-0.01155725121498108,-0.005871474742889404,XArbitraryZVertical,0.03109694050660699,-0.0005918156641876515,-0.01149976628397284,0.999450068050158,-0.0004677653196267784,-0.06217328831553459,-0.9980652332305908,0,0,0,-1,-1,,,,,,,,,,,,,,,,,,1,0.21
2021-11-22 14:58:36.867 -0500,,,,,,,,,,547.3355241666667,0.0005645751953125,-0.073974609375,-0.9990692138671875,547.3305541666667,-0.02292854334209399,-0.0005450375658481875,0.0624804902910826,0.03169487044215202,0.007244227454066277,0.0035004080273211,0.004099370911717415,-0.01173320040106773,-0.007826030254364014,XArbitraryZVertical,0.03122998779946869,-0.0006304484680683395,-0.01146693812302425,0.9994462371834625,-0.000543974048923701,-0.06243984773755074,-0.9980486035346985,0,0,0,-1,-1,,,,,,,,,,,,,,,,,,1,0.21
2021-11-22 14:58:36.877 -0500,,,,,,,,,,547.3454651666667,-0.000701904296875,-0.0743408203125,-0.99383544921875,547.3404951666668,-0.02294986419021996,-0.0003975302485514069,0.06278968572882708,0.03694476187229156,0.02168351970613003,-0.006988851353526115,0.0009614210575819016,-0.01122624427080154,-0.00103992223739624,XArbitraryZVertical,0.03138533999864607,-0.0005588407401121571,-0.01147526472393734,0.9994412940882031,-0.0003967468510381877,-0.06274843215942383,-0.9980292916297913,0,0,0,-1,-1,,,,,,,,,,,,,,,,,,1,0.21
2021-11-22 14:58:36.888 -0500,,,,,,,,,,547.3554061666667,0.004180908203125,-0.0733184814453125,-0.9883575439453125,547.3504361666667,-0.02293446082050833,-0.0001565710515837152,0.06331810669908802,0.06442858278751373,0.03100644983351231,0.01204928942024708,-0.0005455479840748012,-0.01106508821249008,0.004160642623901367,XArbitraryZVertical,0.03165078726707138,-0.000441214241286475,-0.01146371104188176,0.9994331225455217,-0.000156257301568985,-0.06327580660581589,-0.9979960918426514,0,0,0,-1,-1,,,,,,,,,,,,,,,,,,1,0.21
2021-11-22 14:58:36.897 -0500,,,,,,,,,,547.3653471666667,0.0024566650390625,-0.0750274658203125,-0.99151611328125,547.3603771666667,-0.02279017970579562,0.0002656048354396585,0.06392427425231426,0.04988372698426247,0.05087929219007492,0.01323972083628178,0.003915945068001747,-0.009437806904315948,0.009599983692169189,XArbitraryZVertical,0.03195613171655202,-0.0002314155247809632,-0.01138477920823785,0.9994244409802573,0.0002650623500812799,-0.06388074904680252,-0.9979575276374817,0,0,0,-1,-1,,,,,,,,,,,,,,,,,,1,0.21
2021-11-22 14:58:36.907 -0500,,,,,,,,,,547.3752891666667,0.004974365234375,-0.074188232421875,-1.003921508789062,547.3703181666667,-0.02269746117269894,0.0006585876467011655,0.06423914098210963,0.01480883173644543,0.02418509684503078,0.004983922000974417,0.00179953477345407,-0.01083256304264069,0.006421089172363281,XArbitraryZVertical,0.0321157123001615,-3.534303528454979e-05,-0.0113320583149078,0.9994199446540862,0.0006572291604243219,-0.06419496983289719,-0.9979371428489685,0,0,0,-1,-1,,,,,,,,,,,,,,,,,,1,0.21
2021-11-22 14:58:36.917 -0500,,,,,,,,,,547.3852301666667,0.0082550048828125,-0.07763671875,-1.009552001953125,547.3802591666667,-0.02267176538226188,0.0006690736767389306,0.06419005235053526,-0.01826736330986023,-0.01523851044476032,0.00342157855629921,0.004306768532842398,-0.01004232466220856,-0.005981206893920898,XArbitraryZVertical,0.03209124539641569,-2.941217591434399e-05,-0.01131906781714046,0.9994207727228935,0.0006676957127638161,-0.06414598226547241,-0.9979403018951416,0,0,0,-1,-1,,,,,,,,,,,,,,,,,,1,0.21
2021-11-22 14:58:36.927 -0500,,,,,,,,,,547.3951711666667,0.004241943359375,-0.0742950439453125,-1.003631591796875,547.3902001666667,-0.0225810201655869,0.0004286042506605703,0.06408824945166286,-0.000972262118011713,-0.02102928794920444,0.0152774378657341,0.007827379740774632,-0.01359240710735321,-0.01160502433776855,XArbitraryZVertical,0.03203901539203009,-0.0001475464190849127,-0.01127760795401681,0.9994230172911329,0.000427724327892065,-0.06404438614845276,-0.9979469776153564,0,0,0,-1,-1,,,,,,,,,,,,,,,,,,1,0.21
2021-11-22 14:58:36.937 -0500,,,,,,,,,,547.4051121666668,0.0001983642578125,-0.0682525634765625,-0.9932403564453125,547.4001411666667,-0.02239578885657945,0.0002602006548917149,0.06412194576251704,0.003327677957713604,-0.01054998114705086,0.01733193546533585,0.003982376307249069,-0.01021710783243179,-0.005686700344085693,XArbitraryZVertical,0.03205492520636178,-0.0002289210261352293,-0.0111877350781162,0.9994235094798044,0.0002596659178379923,-0.06407801061868668,-0.9979448318481445,0,0,0,-1,-1,,,,,,,,,,,,,,,,,,1,0.21
2021-11-22 14:58:36.947 -0500,,,,,,,,,,547.4150531666667,-0.004608154296875,-0.0731658935546875,-0.989837646484375,547.4100821666667,-0.02233125993905827,0.0001317845378400399,0.06412051033435055,-0.00284952437505126,-0.01845637336373329,-0.003668421879410744,6.694950570818037e-05,-0.004176042973995209,0.004704654216766357,XArbitraryZVertical,0.03205349970601778,-0.0002920498647228131,-0.0111575479500793,0.9994238522456452,0.0001315137196797878,-0.06407658010721207,-0.9979449510574341,0,0,0,-1,-1,,,,,,,,,,,,,,,,,,1,0.21
2021-11-22 14:58:36.962 -0500,,,,,,,,,,547.4249941666667,-0.0034027099609375,-0.0735321044921875,-0.9912109375,547.4200231666667,-0.02241789762089231,-0.0001200833799472791,0.06412290256902686,-0.001373866572976112,-0.03450797870755196,-0.01173886470496655,-0.004488218575716019,-0.009087003767490387,0.008107185363769531,XArbitraryZVertical,0.03205327179986135,-0.0004193131222666118,-0.01120487805507515,0.9994232795123171,-0.0001198365862364881,-0.06407897174358368,-0.9979448318481445,0,0,0,-1,-1,,,,,,,,,,,,,,,,,,1,0.21
2021-11-22 14:58:36.975 -0500,,,,,,,,,,547.4349351666667,0.000396728515625,-0.080169677734375,-1.001190185546875,547.4299641666667,-0.02253352459994931,-0.0003972399918106563,0.06391219770982169,-0.04847879335284233,-0.02093970589339733,-0.005453272722661495,-0.003006181912496686,-0.009663477540016174,0.006747305393218994,XArbitraryZVertical,0.03194639468232649,-0.000558478842742899,-0.01126711704267718,0.9994259327765278,-0.0003964289498981088,-0.0638686940073967,-0.997958242893219,0,0,0,-1,-1,,,,,,,,,,,,,,,,,,1,0.21
2021-11-22 14:58:36.977 -0500,,,,,,,,,,547.4448761666667,-7.62939453125e-05,-0.0733642578125,-1.014083862304688,547.4399051666667,-0.02254893299362233,-0.0005924490392169654,0.06337655638866757,-0.05431404709815979,-0.02372167631983757,-0.0008807580452412367,0.0009880871511995792,-0.01683561503887177,-0.003197968006134033,XArbitraryZVertical,0.03167762437977878,-0.000653258140456492,-0.01127795261537288,0.999434223173908,-0.0005912595661357045,-0.0633341372013092,-0.997992217540741,0,0,0,-1,-1,,,,,,,,,,,,,,,,,,1,0.21
2021-11-22 14:58:36.987 -0500,,,,,,,,,,547.4548171666667,-0.008697509765625,-0.0668792724609375,-1.015945434570312,547.4498461666667,-0.02253559054288292,-0.0008616622699717897,0.06306859988294196,-0.008454145863652229,-0.03424941748380661,0.002156044356524944,0.0007837541634216905,-0.01033753156661987,-0.01607239246368408,XArbitraryZVertical,0.03152221838962591,-0.0007858452359052997,-0.01127553714973228,0.9994391095783308,-0.0008599490392953157,-0.0630268007516861,-0.9980114698410034,0,0,0,-1,-1,,,,,,,,,,,,,,,,,,1,0.21
2021-11-22 14:58:36.997 -0500,,,,,,,,,,547.4647581666667,-0.0093841552734375,-0.0658416748046875,-1.001861572265625,547.4597871666667,-0.02258509533851666,-0.00118856128160021,0.06309274745594638,0.008194072172045708,-0.0267292857170105,-0.0118318097665906,-0.007511214353144169,-0.003828451037406921,-0.01793581247329712,XArbitraryZVertical,0.03153241717182669,-0.0009501192447869005,-0.01130543019464619,0.9994383494458292,-0.001186196110211313,-0.06305089592933655,-0.9980096220970154,0,0,0,-1,-1,,,,,,,,,,,,,,,,,,1,0.21
2021-11-22 14:58:37.006 -0500,,,,,,,,,,547.4746991666667,-0.001922607421875,-0.077728271484375,-0.9907379150390625,547.4697281666668,-0.0226904667599968,-0.001293686745019596,0.06315229599703384,-0.001519275363534689,0.002523675560951233,-0.005615458823740482,-0.008092949166893959,-0.00273142009973526,-0.00385582447052002,XArbitraryZVertical,0.03156152736660118,-0.001004650730319699,-0.01135975223477643,0.999436766871827,-0.001291107502765954,-0.06311032921075821,-0.998005747795105,0,0,0,-1,-1,,,,,,,,,,,,,,,,,,1,0.21
2021-11-22 14:58:37.017 -0500,,,,,,,,,,547.4846401666667,0.0096435546875,-0.0838470458984375,-0.9986724853515625,547.4796701666667,-0.02269807341590948,-0.00111804584900456,0.06306741930056642,-0.01633603870868683,0.02118870615959167,0.0017686877399683,-0.0008066855370998383,-0.01470272243022919,0.007273375988006592,XArbitraryZVertical,0.03152010716406432,-0.0009165191663100714,-0.01136077321495707,0.9994381382788954,-0.001115822815336287,-0.06302561610937119,-0.9980112910270691,0,0,0,-1,-1,,,,,,,,,,,,,,,,,,1,0.21
2021-11-22 14:58:37.026 -0500,,,,,,,,,,547.4945811666666,0.006195068359375,-0.0771484375,-0.99774169921875,547.4896111666667,-0.02260906282550858,-0.00114579629659567,0.06295380099604711,-0.004900956992059946,-0.03080951422452927,0.01618810743093491,0.01078717969357967,-0.02093488723039627,-0.0006540417671203613,XArbitraryZVertical,0.03146321289897931,-0.0009283429100902664,-0.01131671772245575,0.9994404411686222,-0.001143526285886765,-0.0629122257232666,-0.9980183839797974,0,0,0,-1,-1,,,,,,,,,,,,,,,,,,1,0.21
2021-11-22 14:58:37.036 -0500,,,,,,,,,,547.5045221666667,-0.0077667236328125,-0.0716552734375,-0.984649658203125,547.4995521666667,-0.02244823377159674,-0.001553886421260139,0.06287193094096764,-0.02088684774935246,-0.04286783933639526,0.01443255040794611,0.007745983079075813,-0.01431799679994583,0.0002813339233398438,XArbitraryZVertical,0.03142008358088895,-0.001129285724640699,-0.01124275113123708,0.9994423717098379,-0.001550815650261939,-0.06283051520586014,-0.9980230331420898,0,0,0,-1,-1,,,,,,,,,,,,,,,,,,1,0.21
2021-11-22 14:58:37.046 -0500,,,,,,,,,,547.5144631666667,-0.0130157470703125,-0.069183349609375,-0.992950439453125,547.5094931666667,-0.02240674197383521,-0.001754204576681384,0.06243833747264188,-0.06403431296348572,0.005326321348547935,-0.005516922101378441,-0.00601583905518055,-0.009257573634386063,0.01340019702911377,XArbitraryZVertical,0.03120230616660997,-0.00122631548339574,-0.0112250497993028,0.9994492771458057,-0.001750785391777754,-0.06239777430891991,-0.998049795627594,0,0,0,-1,-1,,,,,,,,,,,,,,,,,,1,0.21
2021-11-22 14:58:37.056 -0500,,,,,,,,,,547.5244041666667,0.00067138671875,-0.07171630859375,-1.004806518554688,547.5194341666667,-0.02250419840002005,-0.001599788898731652,0.06179551362750352,-0.06146383658051491,0.01726410537958145,-0.00954242330044508,-0.01141891349107027,-0.00742722675204277,0.005139589309692383,XArbitraryZVertical,0.03088188096478267,-0.001147063925884688,-0.01127119772870902,0.9994587770187886,-0.001596734626218677,-0.0617561899125576,-0.9980899691581726,0,0,0,-1,-1,,,,,,,,,,,,,,,,,,1,0.21
2021-11-22 14:58:37.066 -0500,,,,,,,,,,547.5343451666668,0.0054473876953125,-0.0684661865234375,-1.001556396484375,547.5293751666667,-0.0224951719188878,-0.001523533409064195,0.06145444448283172,-0.01256180740892887,-0.003638246096670628,0.01199722290039062,0.002192142652347684,-0.01030061021447182,-0.006695389747619629,XArbitraryZVertical,0.03071187245056566,-0.001106904260117706,-0.01126543857323146,0.9994641386060423,-0.001520656747743487,-0.06141576915979385,-0.9981111288070679,0,0,0,-1,-1,,,,,,,,,,,,,,,,,,1,0.21
2021-11-22 14:58:37.076 -0500,,,,,,,,,,547.5442861666667,0.0004119873046875,-0.07171630859375,-1.007522583007812,547.5393161666667,-0.0223094907378645,-0.001551959176750453,0.06136436297321388,-0.0150875486433506,0.005669668316841125,0.02313549630343914,0.006996524520218372,-0.007140401750802994,-0.003439784049987793,XArbitraryZVertical,0.03066679805700629,-0.001117757043941825,-0.01117306412225695,0.9994665965152822,-0.001549037406221032,-0.06132585927844048,-0.9981166124343872,0,0,0,-1,-1,,,,,,,,,,,,,,,,,,1,0.21
2021-11-22 14:58:37.086 -0500,,,,,,,,,,547.5542271666667,-0.0002899169921875,-0.0689239501953125,-1.007904052734375,547.5492571666667,-0.02217340468860731,-0.001492495148271049,0.06121103075198971,-0.005773408804088831,0.0002362858504056931,0.002719702664762735,0.001901785610243678,-0.01054356619715691,-0.009396493434906006,XArbitraryZVertical,0.03059057743612878,-0.001085106318656199,-0.01110411393792277,0.9994697812143548,-0.001489699468947947,-0.06117281317710876,-0.9981260895729065,0,0,0,-1,-1,,,,,,,,,,,,,,,,,,1,0.21
2021-11-22 14:58:37.096 -0500,,,,,,,,,,547.5641691666667,-0.0029144287109375,-0.0654754638671875,-0.9951629638671875,547.5591981666666,-0.02222595992661735,-0.001711128584846181,0.06130070581424582,0.009631380438804626,-0.04008986428380013,-0.01183780189603567,0.001418095896951854,-0.00766170397400856,-0.009783804416656494,XArbitraryZVertical,0.03063414886099182,-0.001195665924183212,-0.01113374583843157,0.9994678884609766,-0.001707913703285158,-0.06126232072710991,-0.9981202483177185,0,0,0,-1,-1,,,,,,,,,,,,,,,,,,1,0.21
2021-11-22 14:58:37.106 -0500,,,,,,,,,,547.5741101666667,-0.0051116943359375,-0.07135009765625,-0.989166259765625,547.5691391666667,-0.02230603701496321,-0.002108770565866654,0.0612386308780665,-0.02921748161315918,-0.03847172856330872,-0.0006924730259925127,-0.0008095134980976582,-0.00427517294883728,0.002960324287414551,XArbitraryZVertical,0.0306008573667586,-0.00139526255216427,-0.01117983128694243,0.9994681495846557,-0.002104816026985645,-0.06120036169886589,-0.9981232881546021,0,0,0,-1,-1,,,,,,,,,,,,,,,,,,1,0.21
2021-11-22 14:58:37.116 -0500,,,,,,,,,,547.5840511666667,-0.0027923583984375,-0.0747222900390625,-0.9946441650390625,547.5790801666667,-0.02228497287113793,-0.002273831451014609,0.06075396074416427,-0.07052204012870789,0.002195242792367935,0.002140465192496777,-0.002841960871592164,-0.01063357666134834,0.008986234664916992,XArbitraryZVertical,0.03035774119287121,-0.001474736200976238,-0.01117163662841956,0.9994755961440328,-0.002269634278491139,-0.06071659177541733,-0.998152494430542,0,0,0,-1,-1,,,,,,,,,,,,,,,,,,1,0.21
2021-11-22 14:58:37.125 -0500,,,,,,,,,,547.5939921666667,0.0051116943359375,-0.0766143798828125,-1.006912231445312,547.5890211666667,-0.02221428867033613,-0.002254317233436887,0.05995909868820872,-0.0884227454662323,-0.005949503742158413,0.00962474662810564,-0.0005419948138296604,-0.01479918509721756,0.003556311130523682,XArbitraryZVertical,0.02996067545471024,-0.001459512519782753,-0.01113570191689294,0.9994880358353245,-0.002250264398753643,-0.05992317944765091,-0.9982004761695862,0,0,0,-1,-1,,,,,,,,,,,,,,,,,,1,0.21
2021-11-22 14:58:37.135 -0500,,,,,,,,,,547.6039331666667,-0.000152587890625,-0.0690460205078125,-1.012237548828125,547.5989621666668,-0.02209961454352389,-0.002509273467538562,0.05927631778537702,-0.04664547368884087,-0.03915509581565857,0.01853235438466072,0.007616657298058271,-0.01737284287810326,-0.008671700954437256,XArbitraryZVertical,0.02961813169666958,-0.001581450010849474,-0.01108189886891766,0.99949855938334,-0.002504863776266575,-0.05924161151051521,-0.9982405304908752,0,0,0,-1,-1,,,,,,,,,,,,,,,,,,1,0.21
2021-11-22 14:58:37.145 -0500,,,,,,,,,,547.6138741666667,-0.0152130126953125,-0.058349609375,-1.0111083984375,547.6089031666667,-0.02189824873624304,-0.002828523068082634,0.05909868533813344,0.01500617153942585,-0.01665271632373333,0.01868308894336224,0.002671092515811324,-0.009981799870729446,-0.01398730278015137,XArbitraryZVertical,0.02952776571468802,-0.001737044607898355,-0.01098589735283002,0.9995020287943566,-0.002823581220582128,-0.05906428769230843,-0.9982501864433289,0,0,0,-1,-1,,,,,,,,,,,,,,,,,,1,0.21
2021-11-22 14:58:37.155 -0500,,,,,,,,,,547.6238151666666,-0.0255889892578125,-0.0543060302734375,-1.009689331054688,547.6188441666667,-0.02185365234325131,-0.002751653969466341,0.05957185777207303,0.07564076036214828,0.02828343398869038,-0.01066294871270657,-0.01246614381670952,0.001186944544315338,-0.01288604736328125,XArbitraryZVertical,0.02976469299248698,-0.001700545002983661,-0.01096272375998042,0.9994953416509559,-0.002746769459918141,-0.05953662842512131,-0.9982223510742188,0,0,0,-1,-1,,,,,,,,,,,,,,,,,,1,0.21
2021-11-22 14:58:37.165 -0500,,,,,,,,,,547.6337561666667,-0.0183563232421875,-0.0616912841796875,-0.9997711181640625,547.6287851666667,-0.02211012176797246,-0.002432108899565921,0.060414814074619,0.08569952100515366,0.02910235710442066,-0.04036545008420944,-0.02316122129559517,0.006071966141462326,-0.01151669025421143,XArbitraryZVertical,0.03018750978550672,-0.001549312108309787,-0.01108651081668113,0.9994815147004876,-0.002427669242024422,-0.0603780671954155,-0.9981726408004761,0,0,0,-1,-1,,,,,,,,,,,,,,,,,,1,0.21
2021-11-22 14:58:37.175 -0500,,,,,,,,,,547.6436971666667,-0.0022735595703125,-0.074676513671875,-0.9901275634765625,547.6387261666667,-0.02256981871961358,-0.00215519390864062,0.06118499078233387,0.06115822121500969,0.01814354956150055,-0.04837104678153992,-0.0162050649523735,-0.0005445294082164764,-0.001644611358642578,XArbitraryZVertical,0.03057360335821531,-0.001422196082390967,-0.01131234205863344,0.9994674995841178,-0.002151159336790442,-0.0611468218266964,-0.9981264472007751,0,0,0,-1,-1,,,,,,,,,,,,,,,,,,1,0.21
2021-11-22 14:58:37.185 -0500,,,,,,,,,,547.6536381666667,0.00506591796875,-0.078643798828125,-0.9888458251953125,547.6486671666667,-0.02295887328531037,-0.002033933780825363,0.0615175223174307,0.009846563450992107,0.002960069105029106,-0.03224533796310425,-0.0002433755435049534,-0.01319785788655281,0.00797879695892334,XArbitraryZVertical,0.03074020031231285,-0.001369448322285746,-0.01150502231838872,0.9994602630854368,-0.002030085073783994,-0.06147873029112816,-0.9981063008308411,0,0,0,-1,-1,,,,,,,,,,,,,,,,,,1,0.21
2021-11-22 14:58:37.195 -0500,,,,,,,,,,547.6635791666668,0.002044677734375,-0.076904296875,-1.000106811523438,547.6586081666667,-0.02329344091553232,-0.002140263845896207,0.06151556717321891,-0.01226326636970043,-0.02373885363340378,-0.03310687094926834,0.007202231325209141,-0.0171670950949192,0.009260416030883789,XArbitraryZVertical,0.030738371939378,-0.001427715439812781,-0.01167384879426663,0.9994583196662232,-0.002136213937774301,-0.06147677823901176,-0.9981062412261963,0,0,0,-1,-1,,,,,,,,,,,,,,,,,,1,0.21
2021-11-22 14:58:37.205 -0500,,,,,,,,,,547.6735201666667,0.0023193359375,-0.0710601806640625,-0.9973602294921875,547.6685501666667,-0.02354885910935705,-0.002405279163659712,0.06141987791264267,-0.0133956428617239,-0.02466137334704399,-0.01992342621088028,0.004445518366992474,-0.01552309840917587,-0.001995265483856201,XArbitraryZVertical,0.03068880862063803,-0.001563515510531934,-0.01180552213414107,0.9994580268873737,-0.002400741446763277,-0.0613812692463398,-0.9981114864349365,0,0,0,-1,-1,,,,,,,,,,,,,,,,,,1,0.21
2021-11-22 14:58:37.215 -0500,,,,,,,,,,547.6834611666667,0.005401611328125,-0.0772857666015625,-1.002456665039062,547.6784911666667,-0.02369598699447995,-0.002512095024925726,0.06120597694494647,-0.03719977661967278,-0.0001257043331861496,-0.01023710891604424,0.004826823715120554,-0.009892486035823822,0.0007641315460205078,XArbitraryZVertical,0.03058116517906424,-0.001617889539283837,-0.01188058930047222,0.9994603884412785,-0.002507388591766357,-0.06116776913404465,-0.998124361038208,0,0,0,-1,-1,,,,,,,,,,,,,,,,,,1,0.21
2021-11-22 14:58:37.225 -0500,,,,,,,,,,547.6934021666667,0.01275634765625,-0.0767669677734375,-1.003768920898438,547.6884321666666,-0.02371615048499834,-0.002522907832280542,0.06082336884421921,-0.03422555699944496,-0.009622536599636078,0.008606353774666786,0.007919950410723686,-0.01649996638298035,-0.004308998584747314,XArbitraryZVertical,0.03038988251572248,-0.001621341267459825,-0.01189065872578605,0.9994661154539302,-0.00251823989674449,-0.06078587472438812,-0.9981476664543152,0,0,0,-1,-1,,,,,,,,,,,,,,,,,,1,0.21
2021-11-22 14:58:37.235 -0500,,,,,,,,,,547.7033431666667,0.0055999755859375,-0.0742034912109375,-0.993804931640625,547.6983731666667,-0.02362320083519841,-0.002721994245715313,0.06071438622075538,0.01217869389802217,-0.02461862936615944,0.01299617439508438,0.01547342166304588,-0.01608994603157043,-0.005615174770355225,XArbitraryZVertical,0.03033431563462733,-0.001718777881878121,-0.01184717891136831,0.9994681802126475,-0.002716975519433618,-0.06067709252238274,-0.9981537461280823,0,0,0,-1,-1,,,,,,,,,,,,,,,,,,1,0.21
2021-11-22 14:58:37.245 -0500,,,,,,,,,,547.7132841666667,-7.62939453125e-05,-0.0714874267578125,-0.991851806640625,547.7083141666667,-0.02346768071964762,-0.002953058459645138,0.06086908463595238,0.01378963980823755,-0.01171161886304617,0.02309488132596016,0.00854765996336937,-0.01337205618619919,0.00433880090713501,XArbitraryZVertical,0.03041039937819537,-0.001832793684996506,-0.01177305206288131,0.9994664747823652,-0.002947585191577673,-0.06083150580525398,-0.9981436729431152,0,0,0,-1,-1,,,,,,,,,,,,,,,,,,1,0.21
2021-11-22 14:58:37.255 -0500,,,,,,,,,,547.7232251666667,-0.0103912353515625,-0.0689239501953125,-1.000656127929688,547.7182551666667,-0.02325735336639015,-0.003047650036194551,0.06089172142282114,-0.01140706054866314,-0.006492988206446171,0.01571486331522465,0.002965802326798439,-0.01063340157270432,0.006290256977081299,XArbitraryZVertical,0.03042135115341253,-0.001876997135295781,-0.01166939543703202,0.999467317809732,-0.003041997086256742,-0.06085409969091415,-0.9981420636177063,0,0,0,-1,-1,,,,,,,,,,,,,,,,,,1,0.21
2021-11-22 14:58:37.265 -0500,,,,,,,,,,547.7331661666667,-0.019073486328125,-0.061492919921875,-1.012130737304688,547.7281961666667,-0.02325785937328771,-0.003285578777163762,0.06055189946936853,-0.05862250551581383,-0.04662283137440681,-0.01958587020635605,-0.007111584767699242,-0.008409120142459869,-0.002494215965270996,XArbitraryZVertical,0.03025014408920637,-0.001993939620667824,-0.01167304942772034,0.9994721475981718,-0.003279551398009062,-0.0605149045586586,-0.9981619119644165,0,0,0,-1,-1,,,,,,,,,,,,,,,,,,1,0.21
2021-11-22 14:58:37.275 -0500,,,,,,,,,,547.7431071666667,-0.0164947509765625,-0.0580596923828125,-1.009231567382812,547.7381371666667,-0.02352204864606757,-0.003849271290731161,0.06002533749235529,-0.0474311076104641,-0.06594466418027878,-0.03201777115464211,-0.01523105800151825,-0.001503694802522659,-0.01393908262252808,XArbitraryZVertical,0.02998340901526132,-0.002276552771311089,-0.01181318642125037,0.9994779386771216,-0.003842329373583198,-0.05998929962515831,-0.9981916546821594,0,0,0,-1,-1,,,,,,,,,,,,,,,,,,1,0.21
2021-11-22 14:58:37.285 -0500,,,,,,,,,,547.7530481666666,-0.009002685546875,-0.0665740966796875,-1.006790161132812,547.7480781666667,-0.02382827693884447,-0.004251793869442451,0.059652404430075,-0.02678361907601357,-0.01904559880495071,-0.02703100256621838,-0.01225043274462223,0.001557264477014542,-0.01101928949356079,XArbitraryZVertical,0.02979427937170876,-0.002480090541841591,-0.01197192405936948,0.9994812951181151,-0.004244218580424786,-0.05961703136563301,-0.9982122778892517,0,0,0,-1,-1,,,,,,,,,,,,,,,,,,1,0.21
2021-11-22 14:58:37.295 -0500,,,,,,,,,,547.7629901666667,-0.0032196044921875,-0.0714111328125,-1.003082275390625,547.7580191666667,-0.02407742984350597,-0.00430463048519443,0.05954281029888452,0.002707161474972963,-0.001524662598967552,-0.02092357538640499,-0.004705596715211868,-0.007066532969474792,-0.008571505546569824,XArbitraryZVertical,0.02973888389955616,-0.002509551104374595,-0.01209712548839755,0.9994812971705849,-0.004296988714486361,-0.05950763449072838,-0.9982185959815979,0,0,0,-1,-1,,,,,,,,,,,,,,,,,,1,0.21
2021-11-22 14:58:37.306 -0500,,,,,,,,,,547.7729311666667,0.006439208984375,-0.0801239013671875,-0.98687744140625,547.7679601666667,-0.02422805227552922,-0.004326002134134111,0.05971789041736928,0.01933806948363781,-0.001141967251896858,-0.01196097210049629,0.001098772045224905,-0.01172880455851555,-0.004874169826507568,XArbitraryZVertical,0.02982606071631565,-0.002523525510182127,-0.01217287360050173,0.9994776985851561,-0.004318277351558208,-0.05968240275979042,-0.9982081055641174,0,0,0,-1,-1,,,,,,,,,,,,,,,,,,1,0.21
2021-11-22 14:58:37.314 -0500,,,,,,,,,,547.7828721666667,0.006011962890625,-0.07965087890625,-0.9830780029296875,547.7779011666667,-0.02423058136284834,-0.004260295678474679,0.06001903376512192,0.03038326278328896,0.007579486817121506,0.01164102554321289,0.0106919202953577,-0.02014097198843956,0.01131290197372437,XArbitraryZVertical,0.02997694767001209,-0.002492540609047759,-0.01217342243555415,0.999473347708512,-0.00425261165946722,-0.05998300760984421,-0.9981903433799744,0,0,0,-1,-1,,,,,,,,,,,,,,,,,,1,0.21
2021-11-22 14:58:37.324 -0500,,,,,,,,,,547.7928131666667,-0.005157470703125,-0.07171630859375,-0.99072265625,547.7878421666667,-0.02407497531154137,-0.004171150595320734,0.06014719255086903,-0.01219349168241024,0.007770968601107597,0.01794739253818989,0.01017565838992596,-0.01954001560807228,0.01510506868362427,XArbitraryZVertical,0.03004172639672389,-0.00244642616877124,-0.01209443459751638,0.9994724743422785,-0.004163595847785473,-0.06011093407869339,-0.998183012008667,0,0,0,-1,-1,,,,,,,,,,,,,,,,,,1,0.21
2021-11-22 14:58:37.334 -0500,,,,,,,,,,547.8027541666667,-0.0115203857421875,-0.0652923583984375,-0.993896484375,547.7977831666667,-0.02396933586969743,-0.004176270849119434,0.0598087320401217,-0.04429123923182487,-0.004002167843282223,0.001970954705029726,-0.0009885793551802635,-0.01194329559803009,0.0074806809425354,XArbitraryZVertical,0.02987268337026806,-0.002445381581460467,-0.01204142741735813,0.9994781702927354,-0.004168791696429253,-0.05977308005094528,-0.9982032775878906,0,0,0,-1,-1,,,,,,,,,,,,,,,,,,1,0.21
2021-11-22 14:58:37.345 -0500,,,,,,,,,,547.8126951666667,-0.00439453125,-0.0650177001953125,-0.995361328125,547.8077241666667,-0.02396780034236366,-0.004128764755438724,0.05949347851694226,-0.02974745258688927,0.01643519848585129,-0.0007087180856615305,-0.007398838177323341,-0.005834043025970459,0.004325807094573975,XArbitraryZVertical,0.02971542622424228,-0.002419739613360788,-0.01203968162498587,0.9994829378100079,-0.004121448379009962,-0.05945838987827301,-0.998222291469574,0,0,0,-1,-1,,,,,,,,,,,,,,,,,,1,0.21
2021-11-22 14:58:37.354 -0500,,,,,,,,,,547.8226361666667,-0.001251220703125,-0.0704193115234375,-1.004928588867188,547.8176651666668,-0.02391962442823384,-0.003844659331093258,0.05914175006247063,-0.03769432380795479,0.03952054306864738,0.0086293900385499,-0.000556503888219595,-0.005910493433475494,0.002882957458496094,XArbitraryZVertical,0.02954141738072951,-0.002274952240371211,-0.01201110948718961,0.9994887649956348,-0.003837927943095565,-0.05910727754235268,-0.9982442855834961,0,0,0,-1,-1,,,,,,,,,,,,,,,,,,1,0.21
2021-11-22 14:58:37.364 -0500,,,,,,,,,,547.8325771666667,-0.0057830810546875,-0.0661468505859375,-1.005935668945312,547.8276061666667,-0.02381527636259366,-0.003560186648020281,0.05875073826192659,-0.03632732480764389,0.0247434601187706,0.01333785802125931,0.002302915090695024,-0.01170243695378304,-0.006660223007202148,XArbitraryZVertical,0.02934782966563608,-0.002128930495496342,-0.01195448081954528,0.9994954724357206,-0.003554036607965827,-0.05871694535017014,-0.9982683658599854,0,0,0,-1,-1,,,,,,,,,,,,,,,,,,1,0.21
